$GPGGA,091240.000,4847.8270,N,00829.8241,E,2,08,1.0,710.6,M,48.0,M,1.8,0000*7D
$GPRMC,091358.000,A,5112.7197,N,00334.2849,W,0.00,,310815,,,D*63
$GPGGA,091401.000,4847.8270,N,00829.8241,E,2,09,1.0,710.6,M,48.0,M,1.8,0000*7F
$GPRMC,091509.000,A,5547.9479,N,00429.6122,W,0.00,,310815,,,A*60
$GPGGA,091522.000,4847.8270,N,00829.8241,E,2,09,1.0,710.6,M,48.0,M,3.8,0000*7D
$GPGGA,091524,3350.5775,N,11755.8530,W,1,09,1.1,46.5,M,-31.9,M,,*4F
$GPRMC,091644.000,A,5112.7197,N,00334.2849,W,0.00,,310815,,,D*6B
$GPRMC,091702.000,A,5547.9479,N,00429.6122,W,0.00,,310815,,,A*69
$GPGGA,091827.000,4847.8270,N,00829.8241,E,2,10,0.9,710.6,M,48.0,M,1.8,0000*77
$GPRMC,091856.000,A,5547.9479,N,00429.6122,W,0.00,,310815,,,A*67
$GPRMC,091929.000,A,5112.7197,N,00334.2849,W,0.00,,310815,,,D*6F
$GPGGA,091951.000,4847.8270,N,00829.8241,E,2,10,0.9,710.6,M,48.0,M,3.8,0000*75
$GPRMC,091957.000,A,5547.9479,N,00429.6122,W,0.00,,310815,,,A*67
$GPRMC,092024,A,3350.5768,N,11755.8545,W,000.0,000.0,310815,013.7,E*60
$GPRMC,092057.000,A,5547.9479,N,00429.6122,W,0.00,,310815,,,A*6D
$GPGGA,092114.000,4847.8270,N,00829.8241,E,2,10,0.9,710.6,M,48.0,M,2.8,0000*7E
$GPRMC,092158.000,A,5547.9479,N,00429.6122,W,0.00,,310815,,,A*63
$GPRMC,092209,A,3350.5789,N,11755.8535,W,000.0,272.8,310815,013.4,E*69
$GPGGA,092252.000,4847.8270,N,00829.8241,E,2,10,0.9,710.6,M,48.0,M,1.8,0000*7C
$GPRMC,092259.000,A,5547.9479,N,00429.6122,W,0.00,,310815,,,A*61
$GPGGA,092417.000,4847.8270,N,00829.8241,E,2,11,0.8,710.6,M,48.0,M,1.8,0000*7B
$GPRMC,092458.000,A,5547.9479,N,00429.6122,W,0.00,,310815,,,A*66
$GPRMC,092459.000,A,5112.7197,N,00334.2849,W,0.00,,310815,,,D*66
$GPGGA,092523,3350.5760,N,11755.8537,W,1,09,1.0,48.9,M,-31.9,M,,*4B
$GPRMC,092558.000,A,5547.9479,N,00429.6122,W,0.00,,310815,,,A*67
$GPGGA,092658.000,4847.8270,N,00829.8241,E,2,10,0.9,710.6,M,48.0,M,2.8,0000*71
$GPRMC,092658.000,A,5547.9479,N,00429.6122,W,0.00,,310815,,,A*64
$GPGGA,092709,3350.5789,N,11755.8535,W,2,09,1.0,38.8,M,-31.9,M,,*41
$GPRMC,092745.000,A,5112.7197,N,00334.2849,W,0.00,,310815,,,D*68
$GPRMC,092758.000,A,5547.9479,N,00429.6122,W,0.00,,310815,,,A*65
$GPRMC,092824.060,A,5249.3162,N,00110.9942,W,37.24,123.01,310815,,,A*48
$GPGGA,092826.000,4847.8270,N,00829.8241,E,2,11,0.9,710.6,M,48.0,M,2.8,0000*77
$GPGGA,092949.000,4847.8270,N,00829.8241,E,2,11,0.9,710.6,M,48.0,M,1.8,0000*7C
$GPRMC,093030.000,A,5112.7197,N,00334.2849,W,0.00,,310815,,,A*69
$GPRMC,093054.000,A,5547.9479,N,00429.6122,W,0.00,,310815,,,A*6F
$GPGGA,093107.000,4847.8270,N,00829.8241,E,2,10,0.9,710.6,M,48.0,M,1.8,0000*7E
$GPRMC,093151.000,A,5547.9479,N,00429.6122,W,0.00,,310815,,,A*6B
$GPRMC,093209,A,3350.5788,N,11755.8535,W,000.0,272.8,310815,013.4,E*69
$GPGGA,093226.000,4847.8270,N,00829.8241,E,2,11,0.9,710.6,M,48.0,M,2.8,0000*7C
$GPRMC,093248.000,A,5547.9362,N,00429.5917,W,10.55,58.48,310815,,,A*7E
$GPRMC,093315.000,A,5112.7197,N,00334.2849,W,0.00,,310815,,,A*6D
$GPGGA,093359,3426.9687,N,11720.7604,W,1,,1.0,351,M,,,,*1D
$GPRMC,093359.000,A,5250.3901,N,00108.5339,W,42.76,18.29,310815,,,A*7E
$GPRMC,093414,A,3426.9688,N,11720.7606,W,0.9720,208.1,150196,,E*72
$GPRMC,093514,A,3426.9688,N,11720.7606,W,0.0000,90.0,150196,,E*4D
$GPGGA,093515.000,4847.8270,N,00829.8241,E,2,11,0.9,710.6,M,48.0,M,4.8,0000*7D
$GPGGA,093524,3350.5771,N,11755.8537,W,1,08,1.0,45.1,M,-31.9,M,,*49
$GPRMC,093550.000,A,5251.4154,N,00108.1641,W,28.34,37.22,310815,,,A*7D
$GPRMC,093600.000,A,5112.7197,N,00334.2849,W,0.00,,310815,,,A*6C
$GPGGA,093637.000,4847.8270,N,00829.8241,E,2,10,0.9,710.6,M,48.0,M,3.8,0000*78
$GPGGA,093709,3350.5787,N,11755.8535,W,2,09,1.0,44.8,M,-31.9,M,,*45
$GPRMC,093737.000,A,5546.6691,N,00430.5885,W,20.71,217.27,310815,,,A*43
$GPGGA,093804.000,4847.8270,N,00829.8241,E,2,11,0.9,710.6,M,48.0,M,1.8,0000*75
$GPGGA,093924.000,4847.8270,N,00829.8241,E,2,11,0.9,710.6,M,48.0,M,1.8,0000*76
$GPRMC,094024,A,3350.5799,N,11755.8542,W,000.0,000.0,310815,013.7,E*6F
$GPGGA,094046.000,4847.8270,N,00829.8241,E,2,11,0.9,710.6,M,48.0,M,2.8,0000*7F
$GPRMC,094130.000,A,5112.6549,N,00334.1315,W,8.37,162.43,310815,,,A*78
$GPRMC,094142,A,5147.8622,N,11406.9835,W,0.0,188.4,310815,17.1,E,A*33
$GPRMC,094209,A,3350.5787,N,11755.8535,W,000.0,272.8,310815,013.4,E*61
$GPGGA,094334.000,4847.8270,N,00829.8241,E,2,10,1.0,710.6,M,48.0,M,2.8,0000*70
$GPGGA,094459.000,4847.8270,N,00829.8241,E,2,09,1.1,710.6,M,48.0,M,1.8,0000*76
$GPRMC,094510.000,A,5543.9732,N,00433.2855,W,37.26,216.28,310815,,,A*42
$GPGGA,094524,3350.5783,N,11755.8539,W,1,08,1.0,40.9,M,-31.9,M,,*40
$GPGGA,094618.000,4847.8270,N,00829.8241,E,2,10,1.0,710.6,M,48.0,M,4.8,0000*7D
$GPRMC,094705.000,A,5112.0129,N,00329.5536,W,32.38,116.96,310815,,,A*4E
$GPGGA,094744.000,4847.8270,N,00829.8241,E,2,10,1.0,710.6,M,48.0,M,1.8,0000*70
$GPGGA,094913.000,4847.8270,N,00829.8241,E,2,09,1.0,710.6,M,48.0,M,1.8,0000*74
$GPRMC,170552,A,4606.808,N,12256.376,W,000.0,166.5,270815,019.0,E*61
$GPRMC,094955.000,A,5112.3279,N,00328.7335,W,1.04,332.29,310815,,,A*79
$GPRMC,095024,A,3350.5797,N,11755.8538,W,000.0,000.0,310815,013.7,E*6D
$GPGGA,095157.000,4847.8270,N,00829.8241,E,2,09,1.0,710.6,M,48.0,M,2.8,0000*7E
$GPRMC,095209,A,3350.5787,N,11755.8535,W,000.0,272.8,310815,013.4,E*60
$GPGGA,095319.000,4847.8270,N,00829.8241,E,2,08,1.2,710.6,M,48.0,M,1.8,0000*76
$GPGGA,095440.000,4847.8270,N,00829.8241,E,2,09,1.0,710.6,M,48.0,M,1.8,0000*7E
$GPGGA,095613.000,4847.8270,N,00829.8241,E,2,09,1.0,710.6,M,48.0,M,2.8,0000*79
$GPRMC,095723.000,A,5543.2656,N,00440.9475,W,39.47,228.55,310815,,,A*46
$GPGGA,095745.000,4847.8270,N,00829.8241,E,2,09,1.0,710.6,M,48.0,M,3.8,0000*7A
$GPRMC,095819.000,A,5112.3341,N,00328.5136,W,0.00,,310815,,,D*6F
$GPRMC,095916.000,A,5542.6825,N,00442.3793,W,28.61,255.42,310815,,,A*4A
$GPRMC,100013.000,A,5542.4610,N,00442.9345,W,24.00,255.96,310815,,,A*46
$GPRMC,100024,A,3350.5791,N,11755.8539,W,000.0,000.0,310815,013.7,E*67
$GPGGA,100035.000,4847.8270,N,00829.8241,E,1,09,1.0,710.6,M,48.0,M,,0000*51
$GPRMC,100109.000,A,5112.3341,N,00328.5136,W,0.00,,310815,,,D*6A
$GPRMC,100110.000,A,5542.4233,N,00443.2123,W,11.30,257.22,310815,,,A*41
$GPGGA,100158.000,4847.8270,N,00829.8241,E,1,07,1.3,710.6,M,48.0,M,,0000*56
$GPRMC,100206.000,A,5542.5268,N,00443.6649,W,25.06,289.78,310815,,,A*4B
$GPRMC,100303.000,A,5542.2994,N,00444.3052,W,31.09,244.70,310815,,,A*4D
$GPGGA,100323.000,4847.8270,N,00829.8241,E,2,07,1.3,710.6,M,48.0,M,1.8,0000*7C
$GPGGA,100440.000,4847.8270,N,00829.8241,E,2,08,1.1,710.6,M,48.0,M,1.8,0000*73
$GPRMC,100457.000,A,5541.8462,N,00445.5895,W,33.21,235.06,310815,,,A*4D
$GPRMC,100514,A,3426.9792,N,11720.7562,W,3.8880,238.7,150196,,E*71
$GPGGA,100524,3350.5791,N,11755.8535,W,1,09,0.9,39.8,M,-31.9,M,,*45
$GPGGA,100529,3426.9792,N,11720.7562,W,1,,1.2,903,M,,,,*1E
$GPRMC,100553.000,A,5541.5969,N,00446.2733,W,31.15,271.97,310815,,,A*49
$GPRMC,013447.000,A,4609.1040,N,12258.8133,W,0.16,95.15,310815,,,A*43
$GPGGA,100611.000,4847.8270,N,00829.8241,E,2,07,1.2,710.6,M,48.0,M,1.8,0000*79
$GPRMC,100614,A,3426.9792,N,11720.7562,W,0.0000,111.7,150196,,E*71
$GPRMC,100645.000,A,5112.3341,N,00328.5136,W,0.00,,310815,,,D*65
$GPRMC,100650.000,A,5541.8348,N,00447.0283,W,34.33,291.91,310815,,,A*49
$GPGGA,100709,3350.5786,N,11755.8535,W,2,11,0.8,42.3,M,-31.9,M,,*42
$GPGGA,100904.000,4847.8270,N,00829.8241,E,2,08,1.1,710.6,M,48.0,M,1.8,0000*7E
$GPRMC,100932.000,A,5112.3341,N,00328.5136,W,0.00,,310815,,,D*6A
$GPRMC,101024,A,3350.5785,N,11755.8538,W,000.0,000.0,310815,013.7,E*62
$GPGGA,101026.000,4847.8270,N,00829.8241,E,2,08,1.1,710.6,M,48.0,M,1.8,0000*76
$GPGGA,101147.000,4847.8270,N,00829.8241,E,2,06,1.7,710.6,M,48.0,M,0.8,0000*79
$GPRMC,101209,A,3350.5786,N,11755.8535,W,000.0,272.8,310815,013.4,E*6D
$GPGGA,101311.000,4847.8270,N,00829.8241,E,2,08,1.1,710.6,M,48.0,M,1.8,0000*71
$GPGGA,101438.000,4847.8270,N,00829.8241,E,2,08,1.1,710.6,M,48.0,M,1.8,0000*7D
$GPRMC,101510.000,A,5112.3341,N,00328.5136,W,0.00,,310815,,,D*67
$GPGGA,101523,3350.5792,N,11755.8550,W,1,10,0.9,38.7,M,-31.9,M,,*45
$GPGGA,101709,3350.5786,N,11755.8535,W,2,11,0.8,39.5,M,-31.9,M,,*49
$GPGGA,101729.000,4847.8270,N,00829.8241,E,2,07,1.2,710.6,M,48.0,M,2.8,0000*71
$GPRMC,101757.000,A,5112.3341,N,00328.5136,W,0.00,,310815,,,D*66
$GPGGA,101854.000,4847.8270,N,00829.8241,E,2,07,1.2,710.6,M,48.0,M,1.8,0000*77
$GPGGA,102022.000,4847.8270,N,00829.8241,E,2,07,1.2,710.6,M,48.0,M,1.8,0000*7D
$GPRMC,102023,A,3350.5773,N,11755.8523,W,000.0,000.0,310815,013.7,E*65
$GPRMC,102046.000,A,5112.3341,N,00328.5136,W,0.00,,310815,,,D*62
$GPGGA,102200.000,4847.8270,N,00829.8241,E,2,07,1.2,710.6,M,48.0,M,1.8,0000*7F
$GPGGA,102326.000,4847.8270,N,00829.8241,E,2,08,1.1,710.6,M,48.0,M,1.8,0000*76
$GPRMC,102334.000,A,5112.3341,N,00328.5136,W,0.00,,310815,,,D*64
$GPGGA,102524,3350.5800,N,11755.8538,W,1,09,0.9,40.9,M,-31.9,M,,*42
$GPGGA,102557.000,4847.8270,N,00829.8241,E,2,08,1.1,710.6,M,48.0,M,2.8,0000*75
$GPRMC,102626.000,A,5112.3341,N,00328.5136,W,0.00,,310815,,,D*62
$GPGGA,102718.000,4847.8270,N,00829.8241,E,2,08,1.1,710.6,M,48.0,M,1.8,0000*7F
$GPGGA,102848.000,4847.8270,N,00829.8241,E,2,08,1.1,710.6,M,48.0,M,1.8,0000*75
$GPGGA,103010.000,4847.8270,N,00829.8241,E,2,09,0.9,710.6,M,48.0,M,1.8,0000*79
$GPRMC,103024,A,3350.5787,N,11755.8532,W,000.0,000.0,310815,013.7,E*68
$GPGGA,103128.000,4847.8270,N,00829.8241,E,2,09,0.9,710.6,M,48.0,M,1.8,0000*73
$GPRMC,103205.000,A,5112.3341,N,00328.5136,W,0.00,,310815,,,D*66
$GPGGA,103405.000,4847.8270,N,00829.8241,E,2,09,0.9,710.6,M,48.0,M,2.8,0000*7A
$GPRMC,103452.000,A,5112.3341,N,00328.5136,W,0.00,,310815,,,D*62
$GPGGA,103524,3350.5783,N,11755.8541,W,1,10,0.8,42.7,M,-31.9,M,,*4C
$GPGGA,103528.000,4847.8270,N,00829.8241,E,2,09,0.9,710.6,M,48.0,M,1.8,0000*77
$GPGGA,103652.000,4847.8270,N,00829.8241,E,2,09,0.9,710.6,M,48.0,M,1.8,0000*79
$GPGGA,103659,3427.0498,N,11720.8168,W,1,,1.0,101,M,,,,*11
$GPRMC,103714,A,3427.0498,N,11720.8168,W,0.0000,322.7,150196,,E*71
$GPRMC,103742.000,A,5112.3341,N,00328.5136,W,0.00,,310815,,,D*60
$GPGGA,103823.000,4847.8270,N,00829.8241,E,2,10,0.8,710.6,M,48.0,M,1.8,0000*78
$GPGGA,103945.000,4847.8270,N,00829.8241,E,2,10,0.8,710.6,M,48.0,M,2.8,0000*7A
$GPRMC,104030.000,A,5112.3341,N,00328.5136,W,0.00,,310815,,,D*65
$GPRMC,104148,A,5147.8623,N,11406.9760,W,0.0,188.4,310815,17.1,E,A*3F
$GPGGA,104225.000,4847.8270,N,00829.8241,E,2,10,0.8,710.6,M,48.0,M,2.8,0000*70
$GPRMC,104317.000,A,5112.3341,N,00328.5136,W,0.00,,310815,,,D*63
$GPGGA,104350.000,4847.8270,N,00829.8241,E,2,10,0.8,710.6,M,48.0,M,1.8,0000*70
$GPGGA,104519.000,4847.8270,N,00829.8241,E,2,10,0.8,710.6,M,48.0,M,1.8,0000*7B
$GPGGA,104524,3350.5778,N,11755.8535,W,1,10,0.8,43.0,M,-31.9,M,,*4A
$GPRMC,104557.000,A,5249.9096,N,00109.3918,W,34.06,269.77,310815,,,A*4B
$GPGGA,104642.000,4847.8270,N,00829.8241,E,2,10,0.8,710.6,M,48.0,M,1.8,0000*76
$GPGGA,104816.000,4847.8270,N,00829.8241,E,2,10,0.8,710.6,M,48.0,M,1.8,0000*79
$GPRMC,104854.000,A,5112.3341,N,00328.5136,W,0.00,,310815,,,D*6F
$GPRMC,170552,A,4606.808,N,12256.376,W,000.0,166.5,270815,019.0,E*61
$GPRMC,105024,A,3350.5805,N,11755.8531,W,000.0,000.0,310815,013.7,E*68
$GPGGA,105054.000,4847.8270,N,00829.8241,E,2,09,0.9,710.6,M,48.0,M,1.8,0000*7F
$GPGGA,105138.776,3443.9008,N,13424.5672,E,1,09,1.0,30.9,M,35.9,M,,0000*6E
$GPRMC,105143.000,A,5112.3341,N,00328.5136,W,0.00,,310815,,,D*61
$GPGGA,105215.000,4847.8270,N,00829.8241,E,2,10,0.8,710.6,M,48.0,M,1.8,0000*71
$GPGGA,105240.777,3443.9008,N,13424.5684,E,1,08,1.0,32.3,M,35.9,M,,0000*63
$GPGGA,105329.000,4847.8270,N,00829.8241,E,2,08,0.9,710.6,M,48.0,M,1.8,0000*77
$GPGGA,105342.777,3443.8996,N,13424.5691,E,1,09,1.0,29.5,M,35.9,M,,0000*66
$GPRMC,105432.000,A,5112.3341,N,00328.5136,W,0.00,,310815,,,D*62
$GPGGA,105443.000,4847.8270,N,00829.8241,E,2,09,0.9,710.6,M,48.0,M,1.8,0000*7D
$GPGGA,105444.777,3443.8984,N,13424.5709,E,1,09,1.0,30.7,M,35.9,M,,0000*6E
$GPGGA,105524,3350.5789,N,11755.8535,W,1,09,1.0,44.7,M,-31.9,M,,*44
$GPGGA,105546.777,3443.8968,N,13424.5715,E,1,09,1.0,34.6,M,35.9,M,,0000*67
$GPGGA,105607.000,4847.8270,N,00829.8241,E,2,09,0.9,710.6,M,48.0,M,1.8,0000*7F
$GPGGA,105648.777,3443.9010,N,13424.5669,E,1,09,1.0,32.1,M,35.9,M,,0000*66
$GPRMC,105652,A,5147.8616,N,11406.9849,W,0.0,188.4,310815,17.1,E,A*30
$GPGGA,105702,3832.6894,S,05844.2093,W,1,11,1.02,19.4,M,14.3,M,,*49
$GPGGA,105713,3832.6894,S,05844.2093,W,1,11,1.03,19.9,M,14.3,M,,*45
$GPRMC,105724.000,A,5112.3341,N,00328.5136,W,0.00,,310815,,,D*66
$GPGGA,105723,3832.6894,S,05844.2093,W,1,11,1.03,20.0,M,14.3,M,,*45
$GPGGA,105733,3832.6894,S,05844.2093,W,1,11,1.03,20.0,M,14.3,M,,*44
$GPGGA,105743,3832.6894,S,05844.2093,W,1,11,1.03,20.6,M,14.3,M,,*45
$GPGGA,105748,3832.6894,S,05844.2093,W,1,11,1.03,20.3,M,14.3,M,,*4B
$GPGGA,105753,3832.6894,S,05844.2093,W,1,11,1.03,19.4,M,14.3,M,,*4C
$GPGGA,105758,3832.6894,S,05844.2093,W,1,11,1.03,19.1,M,14.3,M,,*42
$GPGGA,105803,3832.6894,S,05844.2093,W,1,11,1.03,18.7,M,14.3,M,,*44
$GPGGA,105813,3832.6894,S,05844.2093,W,1,11,1.03,18.5,M,14.3,M,,*47
$GPGGA,105823,3832.6894,S,05844.2093,W,1,11,1.03,18.3,M,14.3,M,,*42
$GPGGA,105828,3832.6894,S,05844.2093,W,1,11,1.03,18.0,M,14.3,M,,*4A
$GPGGA,105833,3832.6894,S,05844.2093,W,1,11,1.03,17.6,M,14.3,M,,*49
$GPGGA,105838,3832.6894,S,05844.2093,W,1,11,1.03,17.2,M,14.3,M,,*46
$GPGGA,105843,3832.6894,S,05844.2093,W,1,11,1.03,17.1,M,14.3,M,,*49
$GPGGA,105852.000,4847.8270,N,00829.8241,E,2,09,0.9,710.6,M,48.0,M,1.8,0000*71
$GPGGA,105853,3832.6894,S,05844.2093,W,1,11,1.03,16.9,M,14.3,M,,*41
$GPGGA,105903,3832.6894,S,05844.2093,W,1,11,1.03,17.4,M,14.3,M,,*49
$GPGGA,105913,3832.6879,S,05844.2086,W,1,11,1.03,17.9,M,14.3,M,,*42
$GPGGA,105923,3832.7060,S,05844.2304,W,1,11,1.03,18.3,M,14.3,M,,*4C
$GPGGA,105928,3832.7185,S,05844.2460,W,1,11,1.03,18.1,M,14.3,M,,*4A
$GPGGA,105933,3832.7325,S,05844.2638,W,1,10,1.03,17.4,M,14.3,M,,*4C
$GPGGA,105943,3832.7618,S,05844.2987,W,1,09,1.03,16.1,M,14.3,M,,*47
$GPGGA,105953,3832.7968,S,05844.2648,W,1,10,1.03,18.3,M,14.3,M,,*46
$GPGGA,110003,3832.8337,S,05844.2167,W,1,11,1.03,19.4,M,14.3,M,,*4C
$GPGGA,110005.000,4847.8270,N,00829.8241,E,2,10,0.8,710.6,M,48.0,M,1.8,0000*76
$GPRMC,110012.000,A,5112.3341,N,00328.5136,W,0.00,,310815,,,D*60
$GPGGA,110013,3832.8632,S,05844.1782,W,1,09,1.03,19.1,M,14.3,M,,*4F
$GPGGA,110018,3832.8834,S,05844.1529,W,1,11,1.03,17.9,M,14.3,M,,*40
$GPRMC,110024,A,3350.5791,N,11755.8525,W,000.0,000.0,310815,013.7,E*6B
$GPGGA,110023,3832.8968,S,05844.1356,W,1,12,1.03,16.5,M,14.3,M,,*40
$GPGGA,110033,3832.9258,S,05844.0988,W,1,12,1.03,14.4,M,14.3,M,,*43
$GPGGA,110043,3832.9662,S,05844.0463,W,1,12,0.99,14.7,M,14.3,M,,*40
$GPGGA,110053,3832.9906,S,05844.0133,W,1,12,0.99,14.8,M,14.3,M,,*43
$GPGGA,110058,3833.0016,S,05843.9997,W,1,12,0.99,15.1,M,14.3,M,,*48
$GPGGA,110103,3833.0161,S,05843.9810,W,1,11,0.99,16.0,M,14.3,M,,*49
$GPGGA,110108,3833.0334,S,05843.9576,W,1,12,0.99,16.6,M,14.3,M,,*48
$GPGGA,110113,3833.0525,S,05843.9320,W,1,12,0.99,16.5,M,14.3,M,,*42
$GPGGA,110123,3833.0742,S,05843.9027,W,1,12,0.99,16.4,M,14.3,M,,*47
$GPGGA,110128.000,4847.8270,N,00829.8241,E,2,10,0.8,710.6,M,48.0,M,1.8,0000*78
$GPGGA,110133,3833.1100,S,05843.8567,W,1,10,0.99,14.3,M,14.3,M,,*40
$GPGGA,110143,3833.1254,S,05843.8213,W,1,11,0.99,12.7,M,14.3,M,,*42
$GPGGA,110153,3833.1146,S,05843.8036,W,1,12,0.99,13.5,M,14.3,M,,*46
$GPGGA,110158,3833.1142,S,05843.8022,W,1,12,0.99,13.6,M,14.3,M,,*4F
$GPGGA,110203,3833.1134,S,05843.7984,W,1,12,0.99,13.2,M,14.3,M,,*4D
$GPGGA,110208,3833.1254,S,05843.7878,W,1,12,0.99,12.2,M,14.3,M,,*40
$GPGGA,110213,3833.1528,S,05843.7661,W,1,12,0.99,11.1,M,14.3,M,,*40
$GPGGA,110223,3833.2026,S,05843.7090,W,1,12,0.99,12.5,M,14.3,M,,*44
$GPGGA,110233,3833.2444,S,05843.6688,W,1,12,0.99,14.9,M,14.3,M,,*41
$GPGGA,110243,3833.2725,S,05843.6371,W,1,12,0.99,14.9,M,14.3,M,,*41
$GPGGA,110248,3833.2843,S,05843.6079,W,1,12,0.99,13.9,M,14.3,M,,*49
$GPGGA,110253,3833.2991,S,05843.5823,W,1,12,0.99,13.1,M,14.3,M,,*41
$GPGGA,110257.000,4847.8270,N,00829.8241,E,2,10,0.8,710.6,M,48.0,M,1.8,0000*73
$GPGGA,110303,3833.3273,S,05843.5444,W,1,12,0.99,12.7,M,14.3,M,,*49
$GPGGA,110313,3833.3670,S,05843.4943,W,1,11,0.99,10.9,M,14.3,M,,*4B
$GPGGA,110323,3833.4221,S,05843.4382,W,1,12,1.00,6.9,M,14.3,M,,*7D
$GPGGA,110333,3833.4988,S,05843.4165,W,1,10,1.00,4.3,M,14.3,M,,*75
$GPGGA,110338,3833.5367,S,05843.4144,W,1,12,1.00,4.7,M,14.3,M,,*71
$GPGGA,110343,3833.5729,S,05843.4129,W,1,12,1.00,4.8,M,14.3,M,,*77
$GPGGA,110353,3833.6463,S,05843.4091,W,1,12,1.00,4.9,M,14.3,M,,*7B
$GPGGA,110358,3833.6841,S,05843.4069,W,1,12,1.00,5.3,M,14.3,M,,*70
$GPGGA,110403,3833.7224,S,05843.4022,W,1,12,1.00,7.5,M,14.3,M,,*7A
$GPGGA,110413,3833.7905,S,05843.3707,W,1,12,1.00,10.5,M,14.3,M,,*42
$GPGGA,110416.000,4847.8270,N,00829.8241,E,2,10,0.8,710.6,M,48.0,M,1.8,0000*70
$GPGGA,110423,3833.8512,S,05843.3508,W,1,12,1.00,12.0,M,14.3,M,,*4E
$GPGGA,110428,3833.8692,S,05843.3266,W,1,12,1.00,12.3,M,14.3,M,,*42
$GPGGA,110443,3833.8903,S,05843.2984,W,1,12,1.00,12.8,M,14.3,M,,*45
$GPGGA,110453,3833.9240,S,05843.2576,W,1,11,1.00,11.9,M,14.3,M,,*49
$GPGGA,110503,3833.9581,S,05843.2667,W,1,10,1.00,12.4,M,14.3,M,,*4B
$GPGGA,110513,3833.9916,S,05843.3105,W,1,11,1.00,14.0,M,14.3,M,,*49
$GPGGA,110524,3350.5786,N,11755.8534,W,1,10,0.9,45.0,M,-31.9,M,,*48
$GPGGA,110528,3834.0279,S,05843.3537,W,1,12,1.00,12.4,M,14.3,M,,*49
$GPGGA,110533,3834.0386,S,05843.3651,W,1,12,1.00,12.8,M,14.3,M,,*4D
$GPGGA,110543,3834.0768,S,05843.3202,W,1,12,1.00,10.3,M,14.3,M,,*45
$GPGGA,110548,3834.1022,S,05843.2868,W,1,12,1.00,8.4,M,14.3,M,,*7F
$GPRMC,110555.000,A,5112.3341,N,00328.5136,W,0.00,,310815,,,D*66
$GPRMC,013447.000,A,4609.1040,N,12258.8133,W,0.16,95.15,310815,,,A*43
$GPGGA,110603,3834.1810,S,05843.1832,W,1,12,1.00,6.8,M,14.3,M,,*74
$GPGGA,110608,3834.2084,S,05843.1469,W,1,12,1.00,7.4,M,14.3,M,,*76
$GPGGA,110613,3834.2354,S,05843.1113,W,1,11,1.00,6.7,M,14.3,M,,*7B
$GPGGA,110623,3834.2783,S,05843.0547,W,1,12,1.00,6.0,M,14.3,M,,*76
$GPGGA,110633,3834.3234,S,05842.9911,W,1,12,1.00,5.7,M,14.3,M,,*7C
$GPGGA,110643,3834.3600,S,05842.9612,W,1,11,1.00,6.0,M,14.3,M,,*73
$GPGGA,110653,3834.3799,S,05843.0091,W,1,11,1.00,6.7,M,14.3,M,,*71
$GPGGA,110657.000,4847.8270,N,00829.8241,E,2,10,0.8,710.6,M,48.0,M,1.8,0000*77
$GPGGA,110658,3834.3936,S,05843.0468,W,1,10,1.00,7.4,M,14.3,M,,*70
$GPGGA,110703,3834.4078,S,05843.0863,W,1,12,1.00,7.0,M,14.3,M,,*7A
$GPGGA,110713,3834.4272,S,05843.1101,W,1,12,1.00,6.8,M,14.3,M,,*76
$GPGGA,110723,3834.4612,S,05843.0953,W,1,12,1.00,10.4,M,14.3,M,,*42
$GPGGA,110733,3834.4995,S,05843.0727,W,1,12,1.00,15.7,M,14.3,M,,*48
$GPGGA,110738,3834.5229,S,05843.0580,W,1,12,1.00,17.3,M,14.3,M,,*47
$GPGGA,110743,3834.5354,S,05843.0578,W,1,12,1.00,17.2,M,14.3,M,,*46
$GPGGA,110748,3834.5430,S,05843.0804,W,1,12,1.00,16.2,M,14.3,M,,*4F
$GPGGA,110753,3834.5492,S,05843.1007,W,1,12,1.00,15.0,M,14.3,M,,*46
$GPGGA,110803,3834.5495,S,05843.1286,W,1,11,1.00,13.4,M,14.3,M,,*41
$GPGGA,110813,3834.5467,S,05843.1426,W,1,12,1.00,12.6,M,14.3,M,,*41
$GPRMC,110814,A,3426.9787,N,11720.7566,W,0.0000,190.1,150196,,E*71
$GPGGA,110823,3834.5301,S,05843.1565,W,1,10,1.00,11.6,M,14.3,M,,*42
$GPGGA,110825.000,4847.8270,N,00829.8241,E,2,10,0.8,710.6,M,48.0,M,1.8,0000*7C
$GPGGA,110828,3834.5297,S,05843.1558,W,1,11,1.00,12.9,M,14.3,M,,*44
$GPGGA,110829,3426.9787,N,11720.7566,W,1,,1.0,970,M,,,,*14
$GPRMC,110845.000,A,5112.3341,N,00328.5136,W,0.00,,310815,,,D*6A
$GPGGA,110940.000,4847.8270,N,00829.8241,E,2,08,0.9,710.6,M,48.0,M,1.8,0000*76
$GPRMC,111024,A,3350.5773,N,11755.8540,W,000.0,000.0,310815,013.7,E*65
$GPGGA,111059.000,4847.8270,N,00829.8241,E,2,09,0.9,710.6,M,48.0,M,0.8,0000*76
$GPRMC,111136.000,A,5112.3341,N,00328.5136,W,0.00,,310815,,,D*66
$GPRMC,111209,A,3350.5800,N,11755.8541,W,000.0,272.8,310815,013.4,E*6E
$GPGGA,111220.000,4847.8270,N,00829.8241,E,2,09,0.9,710.6,M,48.0,M,2.8,0000*78
$GPRMC,111425.000,A,5112.3341,N,00328.5136,W,0.00,,310815,,,D*61
$GPRMC,111434.000,A,5249.8877,N,00110.8241,W,20.99,264.03,310815,,,A*44
$GPGGA,111459.000,4847.8270,N,00829.8241,E,2,09,0.9,710.6,M,48.0,M,1.8,0000*73
$GPGGA,111524,3350.5779,N,11755.8538,W,1,10,0.9,44.1,M,-31.9,M,,*45
$GPGGA,111616.000,4847.8270,N,00829.8241,E,2,07,1.1,710.6,M,48.0,M,2.8,0000*7E
$GPRMC,111717.000,A,5112.3341,N,00328.5136,W,0.00,,310815,,,D*63
$GPGGA,111901.000,4847.8270,N,00829.8241,E,2,09,0.9,710.6,M,48.0,M,1.8,0000*73
$GPRMC,112024,A,3350.5792,N,11755.8519,W,000.0,000.0,310815,013.7,E*65
$GPGGA,112028.000,4847.8270,N,00829.8241,E,2,09,0.9,710.6,M,48.0,M,2.8,0000*71
$GPRMC,112209,A,3350.5799,N,11755.8538,W,000.0,272.8,310815,013.4,E*6C
$GPRMC,112254.000,A,5112.3341,N,00328.5136,W,0.00,,310815,,,D*62
$GPGGA,112303.000,4847.8270,N,00829.8241,E,2,09,0.9,710.6,M,48.0,M,1.8,0000*78
$GPGGA,112417.000,4847.8270,N,00829.8241,E,2,09,0.9,710.6,M,48.0,M,1.8,0000*7A
$GPGGA,112524,3350.5787,N,11755.8530,W,1,09,0.9,41.4,M,-31.9,M,,*47
$GPGGA,112533.000,4847.8270,N,00829.8241,E,2,09,0.9,710.6,M,48.0,M,1.8,0000*7D
$GPRMC,112542.000,A,5112.3341,N,00328.5136,W,0.00,,310815,,,D*62
$GPGGA,112652.000,4847.8270,N,00829.8241,E,2,08,1.1,710.6,M,48.0,M,2.8,0000*72
$GPRMC,112658,A,5147.8659,N,11406.9765,W,0.0,354.6,310815,17.1,E,A*37
$GPGGA,112815.000,4847.8270,N,00829.8241,E,2,08,1.1,710.6,M,48.0,M,1.8,0000*7C
$GPGGA,112817,3501.5049,N,08943.4404,W,1,06,0.83,150.4,M,-30.0,M,,*42
$GPRMC,112833.000,A,5112.3341,N,00328.5136,W,0.00,,310815,,,D*69
$GPRMC,113024,A,3350.5775,N,11755.8534,W,000.0,000.0,310815,013.7,E*62
$GPGGA,113051.000,4847.8270,N,00829.8241,E,2,08,1.1,710.6,M,48.0,M,1.8,0000*75
$GPRMC,113122.000,A,5112.3679,N,00328.2444,W,1.75,75.07,310815,,,A*45
$GPGGA,113214.000,4847.8270,N,00829.8241,E,2,08,1.1,710.6,M,48.0,M,1.8,0000*76
$GPGGA,113248.000,5403.8151,N,01044.3258,E,1,09,1.1,60.9,M,45.3,M,,0000*67
$GPGGA,113337.000,4847.8270,N,00829.8241,E,2,08,1.1,710.6,M,48.0,M,2.8,0000*75
$GPRMC,113415.000,A,5112.0647,N,00327.8107,W,13.86,54.15,310815,,,A*72
$GPGGA,113449.000,5402.2787,N,01043.6237,E,1,09,1.1,217.9,M,45.3,M,,0000*5F
$GPGGA,113450.000,4847.8270,N,00829.8241,E,2,08,1.1,710.6,M,48.0,M,1.8,0000*70
$GPGGA,113523,3350.5762,N,11755.8536,W,1,10,0.8,40.6,M,-31.9,M,,*46
$GPGGA,113611.000,4847.8270,N,00829.8241,E,2,07,1.2,710.6,M,48.0,M,,0000*5C
$GPRMC,113633,A,5124.1610,N,00103.9152,W,000,046,310815,,*0F
$GPGGA,113649.000,5400.7410,N,01044.1326,E,1,09,1.1,338.2,M,45.3,M,,0000*51
$GPRMC,113654,A,5124.1615,N,00103.9147,W,000,055,310815,,*0D
$GPRMC,113714,A,5124.1615,N,00103.9147,W,000,055,310815,,*08
$GPRMC,113734,A,5124.1615,N,00103.9147,W,000,055,310815,,*0A
$GPRMC,113754,A,5124.1615,N,00103.9147,W,000,055,310815,,*0C
$GPRMC,113814,A,5124.1615,N,00103.9147,W,000,055,310815,,*07
$GPGGA,113847.000,4847.8270,N,00829.8241,E,2,08,1.1,710.6,M,48.0,M,1.8,0000*7A
$GPGGA,113849.000,5359.5727,N,01045.9562,E,1,08,1.7,394.7,M,45.3,M,,0000*5A
$GPRMC,113914,A,3426.9707,N,11720.8234,W,0.0000,268.5,150196,,E*74
$GPRMC,113951.000,A,5112.1037,N,00327.7700,W,0.00,,310815,,,A*66
$GPGGA,113959,3426.9707,N,11720.8234,W,1,,1.0,189,M,,,,*18
$GPGGA,114001.000,4847.8270,N,00829.8241,E,2,08,1.1,710.6,M,48.0,M,2.8,0000*74
$GPRMC,114024,A,3350.5765,N,11755.8539,W,000.0,000.0,310815,013.7,E*69
$GPRMC,114104,A,5123.7403,N,00103.8163,W,018,051,310815,,*06
$GPGGA,114123.000,4847.8270,N,00829.8241,E,2,08,1.1,710.6,M,48.0,M,0.8,0000*77
$GPRMC,114202,A,5147.8659,N,11406.9770,W,0.0,354.6,310815,17.1,E,A*3E
$GPRMC,114242.000,A,5112.0892,N,00327.7513,W,0.00,,310815,,,A*6E
$GPGGA,114249.000,5357.1574,N,01049.8961,E,1,10,0.8,423.1,M,45.4,M,,0000*56
$GPGGA,114251.000,4847.8270,N,00829.8241,E,2,07,1.5,710.6,M,48.0,M,1.8,0000*7B
$GPGGA,114402.000,4847.8270,N,00829.8241,E,2,07,1.5,710.6,M,48.0,M,1.8,0000*7B
$GPGGA,114449.000,5355.5505,N,01051.0047,E,1,09,0.9,431.4,M,45.4,M,,0000*53
$GPRMC,114520,A,5123.7811,N,00103.7420,W,001,096,310815,,*05
$GPGGA,114521,3834.5298,S,05843.1545,W,1,08,0.87,-1.2,M,14.3,M,,*55
$GPGGA,114524,3350.5768,N,11755.8532,W,1,10,0.9,40.5,M,-31.9,M,,*4A
$GPGGA,114526,3834.5299,S,05843.1546,W,1,08,0.87,-0.3,M,14.3,M,,*50
$GPRMC,114532.000,A,5111.7798,N,00328.0332,W,13.43,198.03,310815,,,A*4A
$GPGGA,114536,3834.5299,S,05843.1546,W,1,08,0.87,-1.0,M,14.3,M,,*53
$GPGGA,114541,3834.5299,S,05843.1546,W,1,08,0.87,0.0,M,14.3,M,,*7F
$GPGGA,114546,3834.5299,S,05843.1546,W,1,08,0.87,1.7,M,14.3,M,,*7E
$GPGGA,114551,3834.5299,S,05843.1546,W,1,08,0.87,2.1,M,14.3,M,,*7D
$GPGGA,114556,3834.5299,S,05843.1546,W,1,08,0.87,1.3,M,14.3,M,,*7B
$GPGGA,114606,3834.5299,S,05843.1546,W,1,08,0.87,5.9,M,14.3,M,,*73
$GPRMC,114610,A,5123.6265,N,00103.9778,W,000,217,310815,,*07
$GPGGA,114611,3834.5299,S,05843.1546,W,1,08,0.87,8.3,M,14.3,M,,*72
$GPGGA,114616,3834.5302,S,05843.1544,W,1,08,0.87,8.6,M,14.3,M,,*71
$GPGGA,114626,3834.5208,S,05843.1461,W,1,09,0.87,11.4,M,14.3,M,,*44
$GPGGA,114636,3834.5110,S,05843.1555,W,1,10,0.87,10.5,M,14.3,M,,*41
$GPGGA,114640.000,4847.8270,N,00829.8241,E,2,08,1.4,710.6,M,48.0,M,1.8,0000*71
$GPGGA,114646,3834.5171,S,05843.1729,W,1,10,0.87,12.0,M,14.3,M,,*4F
$GPGGA,114649.000,5353.8883,N,01052.0195,E,1,09,0.9,432.1,M,45.4,M,,0000*52
$GPGGA,114656,3834.5253,S,05843.1899,W,1,09,0.87,11.0,M,14.3,M,,*42
$GPGGA,114701,3834.5291,S,05843.1998,W,1,09,0.87,9.3,M,14.3,M,,*75
$GPGGA,114706,3834.5331,S,05843.2109,W,1,10,0.87,10.5,M,14.3,M,,*4C
$GPGGA,114709,3350.5797,N,11755.8541,W,2,12,0.8,38.4,M,-31.9,M,,*4D
$GPGGA,114711,3834.5339,S,05843.2251,W,1,10,0.87,9.8,M,14.3,M,,*79
$GPGGA,114716,3834.5341,S,05843.2299,W,1,10,0.87,10.2,M,14.3,M,,*47
$GPRMC,114726,A,5123.5059,N,00103.1131,W,037,053,310815,,*08
$GPGGA,114726,3834.5274,S,05843.2418,W,1,10,0.87,10.0,M,14.3,M,,*4E
$GPGGA,114736,3834.4977,S,05843.2600,W,1,10,0.87,8.4,M,14.3,M,,*70
$GPGGA,114741,3834.4846,S,05843.2686,W,1,09,0.87,7.5,M,14.3,M,,*7B
$GPGGA,114746,3834.4821,S,05843.2719,W,1,09,0.87,8.1,M,14.3,M,,*71
$GPGGA,114751,3834.4821,S,05843.2719,W,1,09,0.87,7.0,M,14.3,M,,*79
$GPRMC,114757,A,5123.6220,N,00102.6009,W,038,058,310815,,*09
$GPGGA,114756,3834.4810,S,05843.2819,W,1,10,0.87,8.1,M,14.3,M,,*75
$GPGGA,114759.000,4847.8270,N,00829.8241,E,2,07,1.8,710.6,M,48.0,M,1.8,0000*7B
$GPRMC,114807,A,5123.6635,N,00102.4375,W,042,079,310815,,*07
$GPGGA,114806,3834.4947,S,05843.3229,W,1,09,0.87,8.6,M,14.3,M,,*7B
$GPGGA,114816,3834.5112,S,05843.3701,W,1,09,0.87,10.1,M,14.3,M,,*42
$GPRMC,114822.000,A,5111.7203,N,00328.1341,W,0.00,,310815,,,D*69
$GPGGA,114836,3834.5248,S,05843.4061,W,1,10,0.87,12.1,M,14.3,M,,*40
$GPGGA,114841,3834.5248,S,05843.4061,W,1,10,0.87,12.0,M,14.3,M,,*41
$GPRMC,170552,A,4606.808,N,12256.376,W,000.0,166.5,270815,019.0,E*61
$GPGGA,114846,3834.5248,S,05843.4061,W,1,10,0.87,13.3,M,14.3,M,,*44
$GPGGA,114851.000,5352.2383,N,01053.4163,E,1,08,1.2,432.0,M,45.4,M,,0000*53
$GPGGA,114856,3834.5250,S,05843.4082,W,1,08,0.87,16.5,M,14.3,M,,*4B
$GPGGA,114906,3834.5331,S,05843.4328,W,1,08,0.87,15.4,M,14.3,M,,*48
$GPGGA,114916,3834.5360,S,05843.4405,W,1,09,0.87,14.8,M,14.3,M,,*49
$GPGGA,114920.000,4847.8146,N,00829.8286,E,2,08,1.1,744.5,M,48.0,M,1.8,0000*72
$GPGGA,114926,3834.5509,S,05843.4768,W,1,10,0.87,14.6,M,14.3,M,,*4D
$GPGGA,114931,3834.5593,S,05843.4999,W,1,09,0.87,12.3,M,14.3,M,,*43
$GPGGA,114936,3834.5676,S,05843.5241,W,1,09,0.87,12.2,M,14.3,M,,*42
$GPGGA,114946,3834.5871,S,05843.5741,W,1,10,0.87,12.1,M,14.3,M,,*42
$GPRMC,114949,A,5123.9834,N,00101.1245,W,000,049,310815,,*0D
$GPGGA,114956,3834.6070,S,05843.6259,W,1,07,0.87,10.6,M,14.3,M,,*45
$GPGGA,115006,3834.6269,S,05843.6792,W,1,10,0.87,13.0,M,14.3,M,,*43
$GPGGA,115011,3834.6361,S,05843.7032,W,1,08,0.87,13.2,M,14.3,M,,*4B
$GPGGA,115016,3834.6415,S,05843.7195,W,1,07,0.87,13.8,M,14.3,M,,*41
$GPGGA,115021,3834.6426,S,05843.7236,W,1,07,0.87,14.4,M,14.3,M,,*44
$GPRMC,115024,A,3350.5777,N,11755.8530,W,000.0,000.0,310815,013.7,E*62
$GPGGA,115026,3834.6426,S,05843.7236,W,1,08,0.87,14.4,M,14.3,M,,*4C
$GPGGA,115035.000,4847.8146,N,00829.8286,E,2,09,0.9,744.5,M,48.0,M,2.8,0000*75
$GPGGA,115036,3834.6430,S,05843.7231,W,1,08,0.87,19.4,M,14.3,M,,*40
$GPGGA,115046,3834.6430,S,05843.7231,W,1,07,0.87,18.7,M,14.3,M,,*4A
$GPGGA,115053.000,5350.4894,N,01054.4999,E,1,08,1.2,443.3,M,45.4,M,,0000*5E
$GPGGA,115056,3834.6430,S,05843.7231,W,1,07,0.87,15.7,M,14.3,M,,*46
$GPGGA,115106,3834.6430,S,05843.7231,W,1,07,0.87,15.1,M,14.3,M,,*44
$GPRMC,115110.000,A,5111.7203,N,00328.1341,W,0.00,,310815,,,D*60
$GPGGA,115111,3834.6430,S,05843.7231,W,1,07,0.87,16.1,M,14.3,M,,*41
$GPGGA,115116,3834.6438,S,05843.7279,W,1,08,0.87,17.9,M,14.3,M,,*44
$GPGGA,115126,3834.6564,S,05843.7597,W,1,09,0.87,12.7,M,14.3,M,,*42
$GPGGA,115136,3834.6740,S,05843.8061,W,1,07,0.87,12.0,M,14.3,M,,*4D
$GPGGA,115141,3834.6848,S,05843.8329,W,1,08,0.87,12.4,M,14.3,M,,*4E
$GPGGA,115146,3834.6948,S,05843.8602,W,1,09,0.87,12.4,M,14.3,M,,*45
$GPGGA,115156,3834.7147,S,05843.9131,W,1,08,0.87,10.8,M,14.3,M,,*4B
$GPGGA,115202.000,4847.8280,N,00829.8275,E,2,08,1.1,712.1,M,48.0,M,1.8,0000*7A
$GPGGA,115201,3834.7244,S,05843.9398,W,1,08,0.87,12.2,M,14.3,M,,*43
$GPGGA,115206,3834.7339,S,05843.9678,W,1,07,0.87,12.8,M,14.3,M,,*41
$GPGGA,115216,3834.7537,S,05844.0210,W,1,08,0.87,11.7,M,14.3,M,,*4F
$GPGGA,115222,4219.5405,N,08319.7872,W,2,08,1.2,195.4,M,-34.5,M,,*7A
$GPGGA,115226,3834.7603,S,05844.0384,W,1,09,0.87,12.4,M,14.3,M,,*45
$GPGGA,115236,3834.7603,S,05844.0384,W,1,09,0.87,17.1,M,14.3,M,,*44
$GPGGA,115246,3834.7603,S,05844.0384,W,1,08,0.87,14.6,M,14.3,M,,*46
$GPGGA,115251,3834.7603,S,05844.0384,W,1,08,0.87,11.2,M,14.3,M,,*41
$GPGGA,115256,3834.7603,S,05844.0384,W,1,08,0.87,8.2,M,14.3,M,,*7E
$GPGGA,115306,3834.7607,S,05844.0397,W,1,08,0.87,12.1,M,14.3,M,,*44
$GPGGA,115311,3834.7640,S,05844.0524,W,1,10,0.87,12.7,M,14.3,M,,*40
$GPGGA,115316,3834.7671,S,05844.0619,W,1,10,0.87,13.3,M,14.3,M,,*4D
$GPGGA,115322,4219.5105,N,08319.8601,W,2,09,1.2,195.1,M,-34.5,M,,*7F
$GPGGA,115326,3834.7676,S,05844.0630,W,1,10,0.87,13.8,M,14.3,M,,*49
$GPGGA,115336,3834.7676,S,05844.0630,W,1,10,0.87,14.2,M,14.3,M,,*45
$GPGGA,115341,3834.7676,S,05844.0630,W,1,10,0.87,12.6,M,14.3,M,,*47
$GPGGA,115346,3834.7677,S,05844.0636,W,1,10,0.87,10.9,M,14.3,M,,*4A
$GPGGA,115356,3834.7677,S,05844.0636,W,1,10,0.87,10.6,M,14.3,M,,*44
$GPGGA,115406,3834.7677,S,05844.0636,W,1,10,0.87,8.1,M,14.3,M,,*78
$GPGGA,115426,3834.7677,S,05844.0636,W,1,10,0.87,13.7,M,14.3,M,,*46
$GPGGA,115431,3834.7677,S,05844.0636,W,1,10,0.87,13.4,M,14.3,M,,*43
$GPGGA,115436,3834.7677,S,05844.0636,W,1,10,0.87,12.8,M,14.3,M,,*49
$GPGGA,115439.000,4847.8280,N,00829.8275,E,2,09,0.9,712.1,M,48.0,M,2.8,0000*7F
$GPGGA,115441,3834.7677,S,05844.0636,W,1,10,0.87,11.8,M,14.3,M,,*4A
$GPGGA,115446,3834.7677,S,05844.0636,W,1,10,0.87,11.3,M,14.3,M,,*46
$GPGGA,115453.000,5346.7937,N,01055.3152,E,1,08,0.9,454.5,M,45.4,M,,0000*55
$GPGGA,115456,3834.7674,S,05844.0639,W,1,10,0.87,14.0,M,14.3,M,,*4D
$GPGGA,115501,3834.7674,S,05844.0639,W,1,09,0.87,14.6,M,14.3,M,,*40
$GPGGA,115506,3834.7674,S,05844.0639,W,1,09,0.87,14.9,M,14.3,M,,*48
$GPGGA,115516,3834.7674,S,05844.0639,W,1,09,0.87,11.4,M,14.3,M,,*41
$GPGGA,115521,3834.7673,S,05844.0639,W,1,08,0.87,10.0,M,14.3,M,,*46
$GPGGA,115524,3350.5769,N,11755.8531,W,1,09,0.9,42.8,M,-31.9,M,,*4E
$GPGGA,115526,3834.7673,S,05844.0639,W,1,09,0.87,10.3,M,14.3,M,,*43
$GPGGA,115536,3834.7673,S,05844.0639,W,1,09,0.87,5.2,M,14.3,M,,*77
$GPGGA,115546,3834.7670,S,05844.0635,W,1,09,0.87,3.4,M,14.3,M,,*7F
$GPGGA,115556,3834.7707,S,05844.0683,W,1,08,0.87,6.7,M,14.3,M,,*75
$GPGGA,115559.000,4847.8280,N,00829.8275,E,2,09,0.9,712.1,M,48.0,M,2.8,0000*78
$GPGGA,115606,3834.7868,S,05844.1082,W,1,07,0.87,10.8,M,14.3,M,,*44
$GPGGA,115611,3834.7970,S,05844.1352,W,1,09,0.87,11.1,M,14.3,M,,*42
$GPGGA,115621,4217.7629,N,08319.7832,W,2,09,1.2,192.2,M,-34.5,M,,*79
$GPGGA,115626,3834.8219,S,05844.2134,W,1,10,0.87,10.6,M,14.3,M,,*42
$GPGGA,115636,3834.8313,S,05844.2099,W,1,10,0.87,12.1,M,14.3,M,,*4B
$GPGGA,115646,3834.8163,S,05844.1703,W,1,09,0.87,12.5,M,14.3,M,,*42
$GPRMC,115647.000,A,5111.7203,N,00328.1341,W,0.00,,310815,,,D*65
$GPGGA,115651,3834.8076,S,05844.1471,W,1,09,0.87,11.5,M,14.3,M,,*44
$GPGGA,115654.000,5344.8155,N,01055.4946,E,1,08,1.2,437.1,M,45.5,M,,0000*51
$GPGGA,115656,3834.8014,S,05844.1313,W,1,09,0.87,11.7,M,14.3,M,,*46
$GPGGA,115706,3834.8056,S,05844.1587,W,1,07,0.87,8.6,M,14.3,M,,*78
$GPGGA,115709,3350.5796,N,11755.8541,W,2,11,0.9,43.9,M,-31.9,M,,*4E
$GPRMC,115706,A,5147.8668,N,11406.9789,W,0.0,227.7,310815,17.1,E,A*3E
$GPGGA,115716.000,4847.8280,N,00829.8275,E,2,09,0.9,712.1,M,48.0,M,1.8,0000*72
$GPGGA,115716,3834.8203,S,05844.2027,W,1,10,0.87,10.6,M,14.3,M,,*48
$GPGGA,115721,4217.4078,N,08319.7686,W,2,09,1.3,192.1,M,-34.5,M,,*7A
$GPGGA,115736,3834.7675,S,05844.2806,W,1,08,0.87,12.7,M,14.3,M,,*41
$GPGGA,115741,3834.7531,S,05844.3002,W,1,08,0.87,12.1,M,14.3,M,,*49
$GPGGA,115746,3834.7358,S,05844.3216,W,1,09,0.87,11.6,M,14.3,M,,*45
$GPGGA,115751,3834.7180,S,05844.3439,W,1,09,0.87,8.8,M,14.3,M,,*79
$GPGGA,115756,3834.7011,S,05844.3647,W,1,10,0.87,8.5,M,14.3,M,,*79
$GPGGA,115806,3834.6727,S,05844.3822,W,1,09,0.87,11.1,M,14.3,M,,*49
$GPGGA,115816,3834.6430,S,05844.3447,W,1,08,0.87,13.4,M,14.3,M,,*44
$GPGGA,115826,3834.6142,S,05844.3079,W,1,07,0.87,12.1,M,14.3,M,,*45
$GPGGA,115836,3834.5821,S,05844.2686,W,1,07,0.87,13.5,M,14.3,M,,*49
$GPGGA,115838.000,4847.8280,N,00829.8275,E,2,09,0.9,712.1,M,48.0,M,1.8,0000*71
$GPGGA,115841,3834.5649,S,05844.2483,W,1,09,0.87,13.2,M,14.3,M,,*47
$GPGGA,115846,3834.5478,S,05844.2275,W,1,10,0.87,13.3,M,14.3,M,,*46
$GPGGA,115854.000,5342.9372,N,01056.0676,E,1,08,1.0,416.1,M,45.5,M,,0000*55
$GPGGA,115856,3834.5148,S,05844.1863,W,1,09,0.87,13.6,M,14.3,M,,*42
$GPGGA,115906,3834.4874,S,05844.1511,W,1,09,0.87,13.8,M,14.3,M,,*47
$GPGGA,115911,3834.4732,S,05844.1344,W,1,08,0.87,12.4,M,14.3,M,,*46
$GPGGA,115916,3834.4652,S,05844.1249,W,1,08,0.87,13.3,M,14.3,M,,*4C
$GPGGA,115921,4217.0881,N,08321.2308,W,2,09,1.1,191.5,M,-34.5,M,,*76
$GPGGA,115926,3834.4372,S,05844.0897,W,1,07,0.87,12.1,M,14.3,M,,*4C
$GPGGA,115931,3834.4202,S,05844.0683,W,1,09,0.87,11.6,M,14.3,M,,*4D
$GPGGA,115936,3834.4039,S,05844.0486,W,1,09,0.87,11.8,M,14.3,M,,*49
$GPRMC,115939.000,A,5111.7203,N,00328.1341,W,0.00,,310815,,,D*63
$GPGGA,115946,3834.3738,S,05844.0112,W,1,08,0.87,14.9,M,14.3,M,,*42
$GPGGA,115950.000,4847.8280,N,00829.8275,E,2,09,0.9,712.1,M,48.0,M,2.8,0000*7D
$GPGGA,115956,3834.3639,S,05843.9986,W,1,09,0.87,15.2,M,14.3,M,,*43
$GPGGA,120006,3834.3357,S,05843.9653,W,1,09,0.87,13.0,M,14.3,M,,*47
$GPGGA,120016,3834.3210,S,05843.9492,W,1,07,0.87,10.0,M,14.3,M,,*46
$GPGGA,120022,4217.0209,N,08321.6676,W,2,09,1.1,192.6,M,-34.5,M,,*78
$GPRMC,120024,A,3350.5774,N,11755.8536,W,000.0,000.0,310815,013.7,E*61
$GPGGA,120031,3834.3210,S,05843.9492,W,1,07,0.87,11.8,M,14.3,M,,*4A
$GPGGA,120036,3834.3210,S,05843.9492,W,1,07,0.87,12.7,M,14.3,M,,*41
$GPGGA,120041,3834.3210,S,05843.9492,W,1,07,0.87,12.7,M,14.3,M,,*41
$GPGGA,120046,3834.3177,S,05843.9457,W,1,10,0.87,13.6,M,14.3,M,,*4B
$GPGGA,120054.000,5341.1782,N,01056.9283,E,1,09,0.9,448.9,M,45.5,M,,0000*56
$GPGGA,120056,3834.2910,S,05843.9657,W,1,10,0.87,12.4,M,14.3,M,,*43
$GPGGA,120106,3834.2574,S,05844.0088,W,1,09,0.87,9.7,M,14.3,M,,*72
$GPGGA,120116,3834.2225,S,05844.0543,W,1,08,0.87,11.2,M,14.3,M,,*4F
$GPGGA,120121,4216.9798,N,08321.8083,W,2,10,1.2,196.8,M,-34.5,M,,*7C
$GPGGA,120126,3834.1923,S,05844.0932,W,1,09,0.87,11.1,M,14.3,M,,*4A
$GPGGA,120136,3834.1639,S,05844.1304,W,1,08,0.87,11.2,M,14.3,M,,*43
$GPGGA,120146,3834.1325,S,05844.1716,W,1,08,0.87,13.2,M,14.3,M,,*49
$GPGGA,120156,3834.0994,S,05844.2147,W,1,10,0.87,11.6,M,14.3,M,,*47
$GPGGA,120201,3834.0827,S,05844.2363,W,1,08,0.87,11.5,M,14.3,M,,*41
$GPGGA,120206,3834.0660,S,05844.2584,W,1,10,0.87,12.4,M,14.3,M,,*4F
$GPGGA,120221,3834.0212,S,05844.3169,W,1,09,0.87,13.7,M,14.3,M,,*47
$GPRMC,120225.000,A,5111.7203,N,00328.1341,W,0.00,,310815,,,D*63
$GPGGA,120226,3834.0143,S,05844.3257,W,1,08,0.87,13.2,M,14.3,M,,*4D
$GPGGA,120238.000,4847.8280,N,00829.8275,E,2,07,1.1,712.1,M,48.0,M,2.8,0000*79
$GPGGA,120246,3834.0128,S,05844.3273,W,1,08,0.87,12.6,M,14.3,M,,*45
$GPGGA,120251,3834.0128,S,05844.3273,W,1,08,0.87,11.9,M,14.3,M,,*4F
$GPGGA,120254.000,5339.3334,N,01057.3292,E,1,10,0.8,456.7,M,45.6,M,,0000*50
$GPGGA,120256,3834.0128,S,05844.3273,W,1,08,0.87,11.7,M,14.3,M,,*46
$GPGGA,120306,3834.0128,S,05844.3273,W,1,08,0.87,10.9,M,14.3,M,,*4D
$GPGGA,120316,3834.0128,S,05844.3273,W,1,08,0.87,9.2,M,14.3,M,,*7F
$GPGGA,120326,3834.0081,S,05844.3323,W,1,09,0.87,8.2,M,14.3,M,,*7A
$GPGGA,120336,3833.9857,S,05844.3636,W,1,10,0.87,10.5,M,14.3,M,,*41
$GPGGA,120341,3833.9717,S,05844.3820,W,1,09,0.87,11.7,M,14.3,M,,*48
$GPGGA,120346,3833.9579,S,05844.3992,W,1,08,0.87,9.7,M,14.3,M,,*75
$GPGGA,120356,3833.9266,S,05844.4406,W,1,08,0.87,11.5,M,14.3,M,,*41
$GPGGA,120400.000,4847.8280,N,00829.8275,E,2,09,1.0,712.1,M,48.0,M,1.8,0000*78
$GPGGA,120406,3833.8921,S,05844.4858,W,1,10,0.87,11.4,M,14.3,M,,*45
$GPGGA,120411,3833.8740,S,05844.5086,W,1,09,0.87,11.6,M,14.3,M,,*4A
$GPGGA,120416,3833.8591,S,05844.5284,W,1,10,0.87,12.6,M,14.3,M,,*48
$GPGGA,120422,4216.0551,N,08321.8755,W,2,09,1.3,199.2,M,-34.5,M,,*74
$GPGGA,120426,3833.8366,S,05844.5573,W,1,08,0.87,11.3,M,14.3,M,,*45
$GPGGA,120431,3833.8343,S,05844.5607,W,1,08,0.87,11.3,M,14.3,M,,*44
$GPGGA,120436,3833.8343,S,05844.5607,W,1,08,0.87,12.5,M,14.3,M,,*46
$GPGGA,120446,3833.8313,S,05844.5647,W,1,08,0.87,12.9,M,14.3,M,,*4C
$GPGGA,120456,3833.8160,S,05844.5846,W,1,08,0.87,14.1,M,14.3,M,,*4A
$GPGGA,120506,3833.7880,S,05844.6207,W,1,08,0.87,15.0,M,14.3,M,,*4A
$GPGGA,120511,3833.7725,S,05844.6406,W,1,08,0.87,14.9,M,14.3,M,,*43
$GPRMC,120515.000,A,5111.7203,N,00328.1341,W,0.00,,310815,,,D*67
$GPGGA,120520.000,4847.8280,N,00829.8275,E,2,08,1.0,712.1,M,48.0,M,1.8,0000*7A
$GPGGA,120522,4216.0551,N,08321.8764,W,2,08,1.3,196.9,M,-34.5,M,,*72
$GPGGA,120524,3350.5783,N,11755.8536,W,1,10,0.9,48.1,M,-31.9,M,,*40
$GPGGA,120521,3833.7403,S,05844.6823,W,1,09,0.87,15.6,M,14.3,M,,*43
$GPGGA,120526,3833.7226,S,05844.7056,W,1,08,0.87,14.8,M,14.3,M,,*40
$GPGGA,120536,3833.6877,S,05844.7518,W,1,08,0.87,13.2,M,14.3,M,,*4C
$GPRMC,013447.000,A,4609.1040,N,12258.8133,W,0.16,95.15,310815,,,A*43
$GPGGA,120546,3833.6587,S,05844.7896,W,1,08,0.87,14.8,M,14.3,M,,*4F
$GPGGA,120556,3833.6541,S,05844.7955,W,1,10,0.87,14.5,M,14.3,M,,*4E
$GPGGA,120601,3833.6541,S,05844.7955,W,1,09,0.87,13.2,M,14.3,M,,*47
$GPGGA,120606,3833.6541,S,05844.7955,W,1,09,0.87,13.6,M,14.3,M,,*44
$GPGGA,120611,3833.6541,S,05844.7955,W,1,09,0.87,15.2,M,14.3,M,,*40
$GPGGA,120622,4216.0555,N,08321.8763,W,2,06,1.6,202.5,M,-34.5,M,,*7B
$GPGGA,120626,3833.6541,S,05844.7955,W,1,09,0.87,14.1,M,14.3,M,,*46
$GPGGA,120635.000,4847.8280,N,00829.8275,E,2,08,1.0,712.1,M,48.0,M,1.8,0000*7D
$GPGGA,120636,3833.6541,S,05844.7955,W,1,09,0.87,15.5,M,14.3,M,,*42
$GPGGA,120646,3833.6541,S,05844.7955,W,1,10,0.87,18.0,M,14.3,M,,*45
$GPGGA,120654.000,5335.6427,N,01058.6587,E,1,11,0.8,439.4,M,45.6,M,,0000*5A
$GPGGA,120656,3833.6541,S,05844.7955,W,1,10,0.87,19.9,M,14.3,M,,*4C
$GPGGA,120701,3833.6541,S,05844.7955,W,1,09,0.87,19.8,M,14.3,M,,*46
$GPGGA,120706,3833.6541,S,05844.7955,W,1,09,0.87,19.5,M,14.3,M,,*4C
$GPGGA,120716,3833.6456,S,05844.8023,W,1,10,0.87,17.0,M,14.3,M,,*4E
$GPGGA,120722,4216.0557,N,08321.8764,W,2,09,1.2,198.6,M,-34.5,M,,*77
$GPGGA,120726,3833.6177,S,05844.7711,W,1,07,0.87,17.7,M,14.3,M,,*43
$GPGGA,120736,3833.5850,S,05844.7292,W,1,07,0.87,13.1,M,14.3,M,,*41
$GPRMC,120526.000,A,2713.4548,S,15302.0879,E,0.00,89.46,310815,,,A*45
$GPGGA,120746,3833.5494,S,05844.6869,W,1,08,0.87,18.0,M,14.3,M,,*48
$GPGGA,120749.000,4847.8280,N,00829.8275,E,2,08,1.0,712.1,M,48.0,M,1.8,0000*77
$GPGGA,120756,3833.5138,S,05844.6406,W,1,08,0.87,18.6,M,14.3,M,,*49
$GPRMC,120801.000,A,5111.7203,N,00328.1341,W,0.00,,310815,,,D*6F
$GPGGA,120806,3833.4798,S,05844.5979,W,1,08,0.87,18.9,M,14.3,M,,*47
$GPGGA,120811,3833.4619,S,05844.5774,W,1,09,0.87,20.5,M,14.3,M,,*4C
$GPGGA,120816,3833.4455,S,05844.5570,W,1,07,0.87,21.0,M,14.3,M,,*4D
$GPGGA,120822,4216.0545,N,08321.8761,W,2,09,1.2,201.6,M,-34.5,M,,*7D
$GPGGA,120841,3833.3626,S,05844.4564,W,1,08,0.87,20.6,M,14.3,M,,*42
$GPGGA,120846,3833.3463,S,05844.4365,W,1,08,0.87,18.8,M,14.3,M,,*44
$GPRMC,120848.000,A,2713.9396,S,15301.7597,E,32.81,134.99,310815,,,A*4C
$GPGGA,120856,3833.3174,S,05844.3984,W,1,07,0.87,21.1,M,14.3,M,,*48
$GPGGA,120858.000,5333.8401,N,01059.8144,E,1,12,0.8,440.0,M,45.7,M,,0000*58
$GPGGA,120906,3833.2887,S,05844.3563,W,1,08,0.87,21.0,M,14.3,M,,*43
$GPGGA,120922,4216.0544,N,08321.8767,W,2,09,1.2,201.8,M,-34.5,M,,*75
$GPGGA,120924,4459.0983,N,08939.2166,W,1,03,2.7,376.6,M,-34.6,M,,*74
$GPGGA,120926,3833.2368,S,05844.3839,W,1,07,0.87,16.0,M,14.3,M,,*42
$GPGGA,120931,3833.2239,S,05844.4018,W,1,08,0.87,15.9,M,14.3,M,,*48
$GPGGA,120936,3833.2144,S,05844.4144,W,1,07,0.87,16.2,M,14.3,M,,*49
$GPGGA,120946,3833.1910,S,05844.4444,W,1,07,1.05,14.0,M,14.3,M,,*4A
$GPRMC,120953.000,A,2714.3301,S,15301.6791,E,38.42,205.26,310815,,,A*41
$GPGGA,120956,3833.1793,S,05844.4607,W,1,09,1.05,18.7,M,14.3,M,,*4E
$GPGGA,121006,3833.1605,S,05844.4861,W,1,07,1.05,23.5,M,14.3,M,,*47
$GPGGA,121016,3833.1309,S,05844.5252,W,1,07,1.05,24.5,M,14.3,M,,*43
$GPGGA,121022,4216.0550,N,08321.8760,W,2,09,1.3,198.6,M,-34.5,M,,*73
$GPGGA,121022.000,4847.8280,N,00829.8275,E,2,08,1.0,712.1,M,48.0,M,2.8,0000*7F
$GPGGA,121021,3833.1157,S,05844.5461,W,1,07,1.05,27.0,M,14.3,M,,*4E
$GPGGA,121026,3833.0990,S,05844.5677,W,1,06,1.05,24.2,M,14.3,M,,*4E
$GPGGA,121034,4458.5928,N,08939.4329,W,1,07,1.9,382.2,M,-34.6,M,,*71
$GPGGA,121036,3833.0631,S,05844.6125,W,1,07,1.05,14.2,M,14.3,M,,*4A
$GPGGA,121046,3833.0255,S,05844.6631,W,1,07,1.05,13.4,M,14.3,M,,*48
$GPGGA,121056,3832.9891,S,05844.7120,W,1,07,1.05,14.1,M,14.3,M,,*47
$GPGGA,121059.000,5332.1162,N,01100.9981,E,1,11,0.8,434.4,M,45.7,M,,0000*51
$GPGGA,121106,3832.9503,S,05844.7628,W,1,07,1.05,13.5,M,14.3,M,,*49
$GPGGA,121111,3832.9319,S,05844.7857,W,1,07,1.05,13.5,M,14.3,M,,*44
$GPGGA,121116,3832.9196,S,05844.8002,W,1,06,1.05,14.4,M,14.3,M,,*46
$GPGGA,121126,3832.9038,S,05844.8199,W,1,07,1.05,13.9,M,14.3,M,,*48
$GPGGA,121136.000,4847.8280,N,00829.8275,E,2,06,1.4,712.1,M,48.0,M,1.8,0000*72
$GPGGA,121136,3832.8751,S,05844.8572,W,1,08,1.05,12.4,M,14.3,M,,*42
$GPGGA,121144,4457.6149,N,08939.8577,W,2,09,1.4,375.6,M,-34.6,M,,*79
$GPGGA,121146,3832.8415,S,05844.9011,W,1,08,1.09,14.0,M,14.3,M,,*49
$GPGGA,121156,3832.8058,S,05844.9471,W,1,08,1.09,11.7,M,14.3,M,,*45
$GPGGA,121201,3832.7880,S,05844.9706,W,1,08,1.09,11.3,M,14.3,M,,*41
$GPGGA,121206,3832.7708,S,05844.9935,W,1,08,1.09,12.6,M,14.3,M,,*41
$GPGGA,121216,3832.7361,S,05845.0390,W,1,07,1.09,13.2,M,14.3,M,,*4C
$GPGGA,121222,4216.0551,N,08321.8762,W,2,10,1.2,198.5,M,-34.5,M,,*78
$GPGGA,121226,3832.6999,S,05845.0872,W,1,08,1.09,14.0,M,14.3,M,,*4E
$GPGGA,121236,3832.6658,S,05845.1340,W,1,08,1.09,14.2,M,14.3,M,,*44
$GPGGA,121241,3832.6592,S,05845.1427,W,1,08,1.09,14.8,M,14.3,M,,*4D
$GPGGA,121246,3832.6531,S,05845.1505,W,1,08,1.09,15.0,M,14.3,M,,*4B
$GPGGA,121251.000,4847.8280,N,00829.8275,E,2,08,1.0,712.1,M,48.0,M,0.8,0000*7B
$GPGGA,121251,3832.6395,S,05845.1680,W,1,08,1.09,14.8,M,14.3,M,,*42
$GPGGA,121254,4456.5491,N,08940.0006,W,2,09,1.0,357.9,M,-34.6,M,,*77
$GPGGA,121256,3832.6213,S,05845.1916,W,1,08,1.09,13.5,M,14.3,M,,*40
$GPGGA,121303.000,5330.8555,N,01102.9294,E,1,12,0.8,463.3,M,45.7,M,,0000*5D
$GPGGA,121306,3832.5774,S,05845.2483,W,1,08,1.09,14.5,M,14.3,M,,*46
$GPGGA,121316,3832.5304,S,05845.3094,W,1,07,1.09,15.5,M,14.3,M,,*49
$GPGGA,121322,4216.0551,N,08321.8761,W,2,11,0.9,200.1,M,-34.5,M,,*77
$GPGGA,121321,3832.5063,S,05845.3412,W,1,08,1.09,14.7,M,14.3,M,,*49
$GPGGA,121326,3832.4810,S,05845.3740,W,1,08,1.09,14.5,M,14.3,M,,*45
$GPGGA,121336,3832.4291,S,05845.4395,W,1,07,1.09,15.9,M,14.3,M,,*4E
$GPRMC,121341.000,A,5111.7264,N,00328.1049,W,10.97,71.23,310815,,,D*7D
$GPGGA,121341,3832.4039,S,05845.4717,W,1,08,1.09,16.7,M,14.3,M,,*42
$GPGGA,121346,3832.3815,S,05845.5009,W,1,08,1.09,17.2,M,14.3,M,,*49
$GPGGA,121356,3832.3429,S,05845.5539,W,1,08,1.09,17.6,M,14.3,M,,*49
$GPGGA,121404,4455.9609,N,08940.0771,W,2,10,1.2,364.6,M,-34.6,M,,*7A
$GPGGA,121407.000,4847.8280,N,00829.8275,E,2,08,1.0,712.1,M,48.0,M,1.8,0000*7F
$GPGGA,121406,3832.3345,S,05845.5853,W,1,08,1.09,18.1,M,14.3,M,,*4F
$GPGGA,121411,3832.3474,S,05845.5755,W,1,08,1.09,18.6,M,14.3,M,,*42
$GPGGA,121416,3832.3576,S,05845.5626,W,1,08,1.09,19.0,M,14.3,M,,*44
$GPGGA,121426,3832.3685,S,05845.5491,W,1,08,1.09,19.7,M,14.3,M,,*41
$GPGGA,121431,3832.3741,S,05845.5439,W,1,08,1.09,19.9,M,14.3,M,,*42
$GPGGA,121436,3832.3749,S,05845.5430,W,1,08,1.09,19.1,M,14.3,M,,*4C
$GPGGA,121446,3832.3749,S,05845.5430,W,1,08,1.09,18.9,M,14.3,M,,*42
$GPRMC,121452.000,A,2717.1624,S,15301.2394,E,50.92,184.63,310815,,,A*42
$GPGGA,121456,3832.3749,S,05845.5430,W,1,08,1.09,19.8,M,14.3,M,,*43
$GPGGA,121504.000,5329.4698,N,01104.3990,E,1,12,0.8,436.8,M,45.7,M,,0000*52
$GPGGA,121506,3832.3749,S,05845.5430,W,1,08,1.09,22.1,M,14.3,M,,*46
$GPGGA,121511,3832.3749,S,05845.5430,W,1,08,1.09,23.4,M,14.3,M,,*44
$GPGGA,121516,3832.3749,S,05845.5430,W,1,08,1.09,26.6,M,14.3,M,,*44
$GPGGA,121522,4216.0562,N,08321.8761,W,2,11,0.9,197.1,M,-34.5,M,,*7C
$GPGGA,121521,3832.3749,S,05845.5430,W,1,08,1.09,26.8,M,14.3,M,,*4E
$GPGGA,121524,3350.5762,N,11755.8531,W,1,10,0.9,44.9,M,-31.9,M,,*4D
$GPGGA,121526,3832.3749,S,05845.5430,W,1,08,1.09,27.3,M,14.3,M,,*43
$GPGGA,121531.000,4847.8280,N,00829.8275,E,2,08,1.0,712.1,M,48.0,M,0.8,0000*7A
$GPGGA,121536,3832.3749,S,05845.5430,W,1,08,1.09,33.3,M,14.3,M,,*47
$GPGGA,121541,3832.3749,S,05845.5430,W,1,08,1.09,31.1,M,14.3,M,,*47
$GPGGA,121546,3832.3749,S,05845.5430,W,1,08,1.09,27.7,M,14.3,M,,*41
$GPGGA,121556,3832.3743,S,05845.5419,W,1,08,1.09,18.1,M,14.3,M,,*4B
$GPGGA,121606,3832.3743,S,05845.5419,W,1,08,1.09,11.7,M,14.3,M,,*42
$GPRMC,121607.000,A,5203.2431,N,00504.8530,E,0.00,,310815,,,A*72
$GPRMC,121614,A,3248.5065,N,11651.8298,W,000.0,009.6,310815,012.9,E*6C
$GPGGA,121616,3832.3743,S,05845.5419,W,1,08,1.09,10.0,M,14.3,M,,*45
$GPGGA,121626,3832.3743,S,05845.5419,W,1,08,1.09,9.0,M,14.3,M,,*7E
$GPRMC,121630,A,3248.5064,N,11651.8303,W,000.0,009.6,310815,012.9,E*68
$GPRMC,121632.000,A,5111.5554,N,00327.0024,W,30.44,119.06,310815,,,A*4E
$GPGGA,121636,3832.3743,S,05845.5419,W,1,08,1.09,10.3,M,14.3,M,,*44
$GPGGA,121646,3832.3742,S,05845.5415,W,1,08,1.09,18.8,M,14.3,M,,*4D
$GPGGA,121656,3832.3742,S,05845.5415,W,1,08,1.09,24.4,M,14.3,M,,*4F
$GPRMC,121700,A,3248.5059,N,11651.8305,W,000.0,009.6,310815,012.9,E*62
$GPGGA,121701,3832.3742,S,05845.5415,W,1,08,1.09,24.0,M,14.3,M,,*48
$GPGGA,121706,3832.3742,S,05845.5415,W,1,08,1.09,24.1,M,14.3,M,,*4E
$GPRMC,121710.000,A,5203.2431,N,00504.8530,E,0.00,,310815,,,A*75
$GPGGA,121711,3832.3742,S,05845.5415,W,1,08,1.09,25.2,M,14.3,M,,*4A
$GPRMC,121714,A,3248.5057,N,11651.8306,W,000.0,009.6,310815,012.9,E*6A
$GPGGA,121716,3832.3742,S,05845.5415,W,1,08,1.09,25.7,M,14.3,M,,*48
$GPGGA,121726,3832.3792,S,05845.5369,W,1,08,1.09,23.1,M,14.3,M,,*4A
$GPRMC,121730,A,3248.5054,N,11651.8304,W,000.0,009.6,310815,012.9,E*6D
$GPGGA,121736,3832.4038,S,05845.5615,W,1,07,1.09,21.7,M,14.3,M,,*4E
$GPRMC,121744,A,3248.5051,N,11651.8304,W,000.0,009.6,310815,012.9,E*6B
$GPGGA,121751,3832.4513,S,05845.6205,W,1,08,1.09,24.0,M,14.3,M,,*48
$GPGGA,121756,3832.4687,S,05845.6421,W,1,08,1.09,23.3,M,14.3,M,,*45
$GPRMC,121800,A,3248.5050,N,11651.8304,W,000.0,009.6,310815,012.9,E*65
$GPGGA,121806,3832.5048,S,05845.6872,W,1,07,1.09,22.6,M,14.3,M,,*4A
$GPGGA,121809.000,4847.8280,N,00829.8275,E,2,08,1.0,712.1,M,48.0,M,1.8,0000*7D
$GPRMC,121815.000,A,5203.2431,N,00504.8530,E,0.00,,310815,,,D*7A
$GPRMC,121814,A,3248.5049,N,11651.8304,W,000.0,009.6,310815,012.9,E*68
$GPGGA,121816,3832.5415,S,05845.7331,W,1,08,1.09,21.1,M,14.3,M,,*41
$GPGGA,121826,3832.5783,S,05845.7790,W,1,07,1.09,19.8,M,14.3,M,,*4C
$GPRMC,121830,A,3248.5048,N,11651.8303,W,000.0,009.6,310815,012.9,E*68
$GPGGA,121841,3832.6361,S,05845.8504,W,1,08,1.09,21.4,M,14.3,M,,*4E
$GPRMC,121844,A,3248.5047,N,11651.8302,W,000.0,009.6,310815,012.9,E*65
$GPGGA,121846,3832.6562,S,05845.8750,W,1,08,1.09,22.5,M,14.3,M,,*4D
$GPGGA,121851,3832.6754,S,05845.8992,W,1,08,1.09,22.3,M,14.3,M,,*4A
$GPGGA,121856,3832.6947,S,05845.9231,W,1,08,1.09,21.7,M,14.3,M,,*45
$GPRMC,121900,A,3248.5048,N,11651.8299,W,000.0,009.6,310815,012.9,E*68
$GPGGA,121904.000,5325.6455,N,01104.4676,E,1,12,0.8,438.0,M,45.7,M,,0000*55
$GPGGA,121906,3832.7297,S,05845.9651,W,1,08,1.09,21.9,M,14.3,M,,*4A
$GPRMC,121915.000,A,5203.2992,N,00504.9080,E,10.39,6.90,310815,,,D*5A
$GPRMC,121914,A,3248.5048,N,11651.8295,W,000.0,009.6,310815,012.9,E*61
$GPGGA,121916,3832.7386,S,05845.9787,W,1,08,1.08,23.3,M,14.3,M,,*49
$GPRMC,121926.000,A,5110.4925,N,00325.3409,W,23.67,115.63,310815,,,D*4D
$GPGGA,121926,3832.7386,S,05845.9787,W,1,08,1.08,20.9,M,14.3,M,,*43
$GPRMC,121930,A,3248.5049,N,11651.8292,W,000.0,009.6,310815,012.9,E*61
$GPGGA,121931,3832.7381,S,05845.9888,W,1,07,1.08,21.7,M,14.3,M,,*42
$GPGGA,121933.000,4847.8280,N,00829.8275,E,2,08,1.0,712.1,M,48.0,M,1.8,0000*75
$GPGGA,121936,3832.7271,S,05846.0040,W,1,07,1.08,22.1,M,14.3,M,,*48
$GPRMC,121944,A,3248.5049,N,11651.8292,W,000.0,009.6,310815,012.9,E*62
$GPGGA,121946,3832.7209,S,05846.0195,W,1,08,1.08,22.0,M,14.3,M,,*47
$GPGGA,121956,3832.7262,S,05846.0087,W,1,08,1.08,20.0,M,14.3,M,,*4B
$GPRMC,122000,A,3248.5055,N,11651.8287,W,000.6,281.5,310815,012.9,E*66
$GPGGA,122006,3832.7404,S,05845.9896,W,1,08,1.08,17.9,M,14.3,M,,*4D
$GPGGA,122011,3832.7368,S,05845.9711,W,1,08,1.08,19.1,M,14.3,M,,*40
$GPRMC,122014,A,3248.5053,N,11651.8301,W,001.4,047.4,310815,012.9,E*60
$GPGGA,122021,3832.7049,S,05845.9319,W,1,09,1.08,22.4,M,14.3,M,,*43
$GPRMC,122024,A,3350.5781,N,11755.8529,W,000.0,000.0,310815,013.7,E*67
$GPGGA,122026,3832.6869,S,05845.9103,W,1,09,1.08,22.7,M,14.3,M,,*45
$GPRMC,122030,A,3248.5119,N,11651.8211,W,001.3,088.9,310815,012.9,E*60
$GPGGA,122036,3832.6499,S,05845.8636,W,1,09,1.08,24.6,M,14.3,M,,*40
$GPGGA,122041,3832.6307,S,05845.8399,W,1,09,1.08,25.5,M,14.3,M,,*42
$GPGGA,122047.000,4847.8280,N,00829.8275,E,2,09,0.9,712.1,M,48.0,M,1.8,0000*75
$GPGGA,122046,3832.6114,S,05845.8158,W,1,08,1.08,24.5,M,14.3,M,,*4A
$GPGGA,122056,3832.5718,S,05845.7658,W,1,08,1.08,24.1,M,14.3,M,,*4E
$GPRMC,122100,A,3248.6670,N,11651.8215,W,025.2,007.4,310815,012.9,E*60
$GPGGA,122104.000,5323.6877,N,01104.9788,E,1,12,0.8,395.0,M,45.7,M,,0000*59
$GPGGA,122106,3832.5313,S,05845.7165,W,1,09,1.08,24.3,M,14.3,M,,*4F
$GPGGA,122111,3832.5109,S,05845.6903,W,1,09,1.08,24.6,M,14.3,M,,*4C
$GPGGA,122116,3832.4904,S,05845.6643,W,1,09,1.08,24.2,M,14.3,M,,*40
$GPRMC,122114,A,3248.7688,N,11651.7676,W,030.5,045.7,310815,012.9,E*6B
$GPRMC,122130,A,3248.8824,N,11651.7388,W,026.6,323.8,310815,012.9,E*66
$GPGGA,122136,3832.4090,S,05845.5646,W,1,08,1.08,23.2,M,14.3,M,,*46
$GPRMC,122144,A,3248.9021,N,11651.8720,W,033.1,257.6,310815,012.9,E*6F
$GPGGA,122146,3832.3905,S,05845.5397,W,1,09,1.08,25.5,M,14.3,M,,*4A
$GPGGA,122156,3832.3905,S,05845.5397,W,1,09,1.08,29.9,M,14.3,M,,*4B
$GPRMC,122200,A,3248.8881,N,11652.0656,W,033.7,262.1,310815,012.9,E*63
$GPGGA,122201,3832.3905,S,05845.5397,W,1,09,1.08,30.0,M,14.3,M,,*4B
$GPGGA,122206,3832.3905,S,05845.5397,W,1,09,1.08,27.3,M,14.3,M,,*49
$GPRMC,122209,A,3350.5794,N,11755.8541,W,000.0,272.8,310815,013.4,E*6C
$GPGGA,122211.000,4847.8280,N,00829.8275,E,2,08,1.2,712.1,M,48.0,M,1.8,0000*7F
$GPRMC,122214.000,A,5109.6709,N,00323.4387,W,29.23,98.28,310815,,,D*7F
$GPRMC,122214,A,3248.8288,N,11652.1952,W,033.4,241.2,310815,012.9,E*6E
$GPGGA,122216,3832.3905,S,05845.5397,W,1,09,1.08,26.3,M,14.3,M,,*49
$GPGGA,122226,3832.3905,S,05845.5397,W,1,09,1.08,28.2,M,14.3,M,,*45
$GPRMC,122230,A,3248.7875,N,11652.3646,W,033.1,238.5,310815,012.9,E*6B
$GPGGA,122236,3832.3905,S,05845.5397,W,1,09,1.08,29.2,M,14.3,M,,*45
$GPRMC,122244,A,3248.7264,N,11652.5028,W,036.2,262.9,310815,012.9,E*6F
$GPGGA,122246,3832.3930,S,05845.5167,W,1,08,1.08,21.7,M,14.3,M,,*45
$GPRMC,122252.000,A,2721.3744,S,15305.1858,E,45.79,99.81,310815,,,A*7B
$GPGGA,122251,3832.4079,S,05845.4961,W,1,08,1.08,21.0,M,14.3,M,,*48
$GPGGA,122256,3832.4244,S,05845.4738,W,1,09,1.08,23.0,M,14.3,M,,*42
$GPRMC,122300,A,3248.6609,N,11652.6661,W,037.1,235.2,310815,012.9,E*63
$GPGGA,122306,3832.4573,S,05845.4300,W,1,09,1.08,22.0,M,14.3,M,,*4B
$GPGGA,122311,3832.4742,S,05845.4079,W,1,09,1.08,20.8,M,14.3,M,,*4A
$GPGGA,122316,3832.4918,S,05845.3845,W,1,09,1.08,20.0,M,14.3,M,,*44
$GPGGA,122327.000,4847.8280,N,00829.8275,E,2,09,0.9,712.1,M,48.0,M,1.8,0000*70
$GPGGA,122326,3832.5277,S,05845.3372,W,1,09,1.08,18.7,M,14.3,M,,*47
$GPGGA,122336,3832.5607,S,05845.2933,W,1,09,1.08,18.1,M,14.3,M,,*4D
$GPRMC,122339.000,A,5203.8576,N,00505.3851,E,0.00,,310815,,,D*74
$GPGGA,122341,3832.5780,S,05845.2706,W,1,08,1.08,17.0,M,14.3,M,,*44
$GPRMC,122344,A,3248.5457,N,11653.2444,W,045.0,281.3,310815,012.9,E*63
$GPGGA,122346,3832.5963,S,05845.2462,W,1,09,1.08,16.8,M,14.3,M,,*49
$GPGGA,122356,3832.6347,S,05845.1995,W,1,08,1.08,16.8,M,14.3,M,,*40
$GPRMC,122400,A,3248.5832,N,11653.4913,W,048.5,283.9,310815,013.0,E*6A
$GPGGA,122406,3832.6537,S,05845.1751,W,1,09,1.08,14.1,M,14.3,M,,*4F
$GPRMC,122414,A,3248.5935,N,11653.6758,W,038.1,246.8,310815,013.0,E*61
$GPGGA,122416,3832.6807,S,05845.1406,W,1,08,1.08,16.2,M,14.3,M,,*41
$GPGGA,122426,3832.7147,S,05845.0971,W,1,08,1.08,17.5,M,14.3,M,,*44
$GPRMC,122430,A,3248.5662,N,11653.8712,W,039.3,291.5,310815,013.0,E*6E
$GPGGA,122431,3832.7316,S,05845.0747,W,1,09,1.08,17.9,M,14.3,M,,*42
$GPGGA,122441,3832.7657,S,05845.0293,W,1,09,1.08,15.8,M,14.3,M,,*4A
$GPRMC,122444,A,3248.6460,N,11654.0302,W,040.9,301.6,310815,013.0,E*6B
$GPGGA,122446,3832.7834,S,05845.0061,W,1,09,1.08,16.7,M,14.3,M,,*45
$GPGGA,122456,3832.8199,S,05844.9581,W,1,09,1.08,20.7,M,14.3,M,,*43
$GPRMC,122500,A,3248.6940,N,11654.2344,W,042.1,257.4,310815,013.0,E*6F
$GPGGA,122506,3832.8571,S,05844.9093,W,1,08,1.08,19.8,M,14.3,M,,*47
$GPGGA,122516,3832.8919,S,05844.8655,W,1,09,1.08,18.3,M,14.3,M,,*42
$GPGGA,122524,3350.5783,N,11755.8526,W,1,10,0.9,46.1,M,-31.9,M,,*4D
$GPGGA,122526,3832.9066,S,05844.8472,W,1,08,1.08,18.5,M,14.3,M,,*41
$GPRMC,122530,A,3248.5001,N,11654.5393,W,042.5,229.6,310815,013.0,E*61
$GPGGA,122536,3832.9066,S,05844.8472,W,1,09,1.08,16.0,M,14.3,M,,*4A
$GPRMC,122544,A,3248.4345,N,11654.6427,W,011.4,294.2,310815,013.0,E*6E
$GPRMC,122546.000,A,5204.5407,N,00504.4488,E,54.19,14.62,310815,,,A*6A
$GPGGA,122546,3832.9236,S,05844.8242,W,1,08,1.08,16.6,M,14.3,M,,*48
$GPGGA,122556.000,4847.8280,N,00829.8275,E,2,09,1.0,712.1,M,48.0,M,2.8,0000*7B
$GPGGA,122556,3832.9556,S,05844.7810,W,1,08,1.08,15.1,M,14.3,M,,*4E
$GPGGA,122606,3832.9912,S,05844.7343,W,1,07,1.08,16.1,M,14.3,M,,*45
$GPGGA,122611,3833.0070,S,05844.7138,W,1,09,1.08,17.4,M,14.3,M,,*42
$GPRMC,122614,A,3248.6433,N,11654.8810,W,037.8,316.8,310815,013.0,E*63
$GPGGA,122626,3833.0536,S,05844.6533,W,1,09,1.08,19.6,M,14.3,M,,*43
$GPRMC,122630,A,3248.7009,N,11655.0092,W,024.3,294.2,310815,013.0,E*6A
$GPGGA,122636,3833.0853,S,05844.6132,W,1,08,1.08,17.6,M,14.3,M,,*46
$GPRMC,122644,A,3248.7155,N,11655.0531,W,008.3,276.5,310815,013.0,E*68
$GPGGA,122646,3833.1194,S,05844.5689,W,1,08,1.08,18.1,M,14.3,M,,*4E
$GPRMC,122652.000,A,2723.9833,S,15305.6461,E,55.25,181.69,310815,,,A*4F
$GPGGA,122656,3833.1549,S,05844.5230,W,1,07,1.08,21.4,M,14.3,M,,*4D
$GPRMC,122700,A,3248.5897,N,11655.1240,W,047.0,203.7,310815,013.0,E*64
$GPGGA,122701,3833.1695,S,05844.5038,W,1,07,1.08,21.0,M,14.3,M,,*42
$GPGGA,122704.000,5317.9447,N,01104.7213,E,1,11,0.8,435.4,M,45.8,M,,0000*54
$GPGGA,122706,3833.1758,S,05844.4958,W,1,08,1.08,21.5,M,14.3,M,,*41
$GPRMC,122714,A,3248.3924,N,11655.2437,W,060.0,213.3,310815,013.0,E*6B
$GPGGA,122715.000,4847.8280,N,00829.8275,E,2,09,1.0,712.1,M,48.0,M,0.8,0000*7C
$GPGGA,122716,3833.1760,S,05844.4956,W,1,07,1.08,22.5,M,14.3,M,,*49
$GPRMC,122712,A,5147.8682,N,11406.9779,W,0.0,227.7,310815,17.1,E,A*34
$GPGGA,122726,3833.1760,S,05844.4956,W,1,07,1.08,15.2,M,14.3,M,,*49
$GPRMC,122730,A,3248.2292,N,11655.4818,W,057.7,246.9,310815,013.0,E*64
$GPGGA,122736,3833.1760,S,05844.4956,W,1,07,1.08,10.5,M,14.3,M,,*4A
$GPGGA,122741,3833.1776,S,05844.4937,W,1,07,1.08,10.1,M,14.3,M,,*4E
$GPRMC,122744,A,3248.1945,N,11655.7351,W,056.2,269.6,310815,013.0,E*66
$GPGGA,122746,3833.1881,S,05844.4804,W,1,07,1.07,10.2,M,14.3,M,,*43
$GPRMC,122752.000,A,2724.7849,S,15305.2168,E,53.15,186.16,310815,,,A*48
$GPGGA,122751,3833.2019,S,05844.4619,W,1,07,1.07,10.5,M,14.3,M,,*4A
$GPGGA,122756,3833.2177,S,05844.4411,W,1,08,1.07,17.1,M,14.3,M,,*42
$GPRMC,122800,A,3248.1944,N,11656.0380,W,057.8,270.0,310815,013.0,E*65
$GPGGA,122806,3833.2462,S,05844.4028,W,1,09,1.07,21.2,M,14.3,M,,*40
$GPRMC,122814,A,3248.1939,N,11656.2827,W,051.7,269.5,310815,013.0,E*6A
$GPGGA,122816,3833.2811,S,05844.3829,W,1,06,1.07,23.5,M,14.3,M,,*4D
$GPGGA,122827.000,4847.8280,N,00829.8275,E,2,09,1.0,712.1,M,48.0,M,1.8,0000*73
$GPGGA,122826,3833.3111,S,05844.4169,W,1,09,1.07,24.5,M,14.3,M,,*44
$GPRMC,122830,A,3248.1935,N,11656.5641,W,052.2,270.1,310815,013.0,E*63
$GPRMC,122837.000,A,5231.3679,N,01730.3170,E,34.22,252.96,310815,,,A*5E
$GPGGA,122841,3833.3420,S,05844.3941,W,1,08,1.07,25.2,M,14.3,M,,*40
$GPRMC,122844,A,3248.1934,N,11656.8131,W,054.0,270.1,310815,013.0,E*68
$GPGGA,122846,3833.3540,S,05844.3782,W,1,07,1.07,24.2,M,14.3,M,,*4F
$GPRMC,122852.000,A,2725.6156,S,15305.5264,E,51.38,159.68,310815,,,A*4E
$GPGGA,122856,3833.3617,S,05844.3649,W,1,08,1.07,26.7,M,14.3,M,,*41
$GPRMC,122900,A,3248.1933,N,11657.0930,W,051.6,270.5,310815,013.0,E*69
$GPGGA,122906,3833.3618,S,05844.3644,W,1,09,1.07,30.7,M,14.3,M,,*41
$GPGGA,122911,3833.3617,S,05844.3640,W,1,07,1.07,30.6,M,14.3,M,,*43
$GPRMC,122914,A,3248.1946,N,11657.3391,W,051.5,272.0,310815,013.0,E*68
$GPGGA,122916,3833.3621,S,05844.3612,W,1,08,1.07,28.8,M,14.3,M,,*4E
$GPGGA,122926,3833.3575,S,05844.3316,W,1,07,1.07,23.5,M,14.3,M,,*47
$GPRMC,122930,A,3248.1987,N,11657.5843,W,041.8,272.0,310815,013.0,E*6D
$GPGGA,122936,3833.3568,S,05844.3299,W,1,07,1.07,23.4,M,14.3,M,,*4D
$GPGGA,122943.000,4847.8280,N,00829.8275,E,2,09,1.0,712.1,M,48.0,M,1.8,0000*70
$GPRMC,123000,A,3248.4810,N,11657.7020,W,044.5,000.9,310815,013.0,E*65
$GPRMC,123024,A,3350.5785,N,11755.8541,W,000.0,000.0,310815,013.7,E*6C
$GPRMC,123030,A,3248.9360,N,11657.6641,W,060.7,014.3,310815,013.0,E*6C
$GPRMC,123037.000,A,5110.8310,N,00319.4404,W,23.48,80.38,310815,,,A*78
$GPRMC,123044,A,3249.1685,N,11657.6285,W,060.7,001.4,310815,013.0,E*67
$GPRMC,123052.000,A,2726.9814,S,15306.2334,E,44.86,153.67,310815,,,A*40
$GPGGA,123058.000,4847.8280,N,00829.8275,E,2,09,1.0,712.1,M,48.0,M,1.8,0000*72
$GPRMC,123100,A,3249.4360,N,11657.6818,W,063.1,346.2,310815,013.0,E*60
$GPGGA,123104.000,5314.1993,N,01105.6524,E,1,11,0.9,406.2,M,45.9,M,,0000*59
$GPRMC,123111.000,A,5208.4462,N,00500.2997,E,49.29,337.14,310815,,,A*5E
$GPRMC,123114,A,3249.6865,N,11657.7086,W,066.0,360.0,310815,013.0,E*65
$GPRMC,123130,A,3249.9845,N,11657.7130,W,066.5,358.4,310815,013.0,E*68
$GPRMC,123144,A,3250.2410,N,11657.7199,W,065.5,359.3,310815,013.0,E*62
$GPRMC,123152.000,A,2727.7266,S,15306.6801,E,52.87,144.54,310815,,,A*48
$GPRMC,123209,A,3350.5793,N,11755.8540,W,000.0,272.8,310815,013.4,E*6B
$GPRMC,123230,A,3250.9024,N,11657.2637,W,067.4,046.7,310815,013.0,E*66
$GPRMC,123252.000,A,2728.5396,S,15307.0145,E,54.27,182.63,310815,,,A*44
$GPRMC,123300,A,3251.2734,N,11656.8507,W,046.4,055.3,310815,013.0,E*66
$GPGGA,123304.000,5312.2570,N,01105.7357,E,1,12,0.8,404.9,M,45.9,M,,0000*57
$GPRMC,123314,A,3251.3279,N,11656.6412,W,052.6,083.7,310815,013.0,E*6D
$GPRMC,123327.000,A,5110.6954,N,00318.3079,W,0.00,,310815,,,D*63
$GPRMC,123330,A,3251.3616,N,11656.3416,W,058.6,077.1,310815,013.0,E*60
$GPGGA,123337.000,4847.8280,N,00829.8275,E,2,09,1.0,712.1,M,48.0,M,1.8,0000*78
$GPRMC,123344,A,3251.4385,N,11656.0804,W,061.0,069.4,310815,013.0,E*61
$GPRMC,123352.000,A,2729.1673,S,15307.2814,E,19.69,160.53,310815,,,A*4D
$GPRMC,123400,A,3251.5342,N,11655.7738,W,062.8,069.2,310815,013.0,E*65
$GPRMC,123402.000,A,5228.6032,N,01724.7938,E,56.64,213.94,310815,,,A*55
$GPRMC,123414,A,3251.6161,N,11655.5311,W,047.7,060.1,310815,013.0,E*6F
$GPRMC,123430,A,3251.7199,N,11655.4014,W,020.4,035.4,310815,013.0,E*6F
$GPRMC,123452.000,A,2729.6892,S,15307.5589,E,30.08,161.96,310815,,,A*46
$GPGGA,123454.000,4847.8280,N,00829.8275,E,2,09,1.0,712.1,M,48.0,M,1.8,0000*7A
$GPGGA,123504.000,5310.3508,N,01105.8402,E,1,12,0.8,413.7,M,45.9,M,,0000*5D
$GPRMC,123530,A,3251.9769,N,11655.3463,W,033.3,352.7,310815,013.0,E*6E
$GPRMC,123554.000,A,5212.4057,N,00459.2200,E,52.35,0.69,310815,,,D*55
$GPGGA,123616.000,4847.8280,N,00829.8275,E,2,09,1.0,712.1,M,48.0,M,2.8,0000*7D
$GPRMC,123617.000,A,5110.6954,N,00318.3079,W,0.00,,310815,,,D*65
$GPRMC,123648.000,A,5226.8250,N,01721.7804,E,59.29,238.87,310815,,,A*59
$GPRMC,123700,A,3252.9702,N,11655.7509,W,049.4,320.6,310815,013.0,E*66
